Id,Last Update,Request,Ride Id,Rider Id,Rider Status,# pax,Origin Lat,Origin Lng,Origin Address,Destination Lat,Destination Lng,Destination Address,Err Statement,City
682082,10/08/2019 16:39:58,1570563597.09,,45023,,1,-16.6969756947,-49.2553815991,|Avenida 136, 1, Goiania|,-16.6735817756,-49.2486428842,|PUC Goias - Area 5 - Rua 232 - Setor Leste Universitario, Goiania - GO|,,GYN
682079,10/08/2019 16:39:33,1570563571.68,,26194,,1,-16.6860071608,-49.2674706504,|Avenida Assis Chateaubriand Q G6, 973, Goiania|,-16.7195090869,-49.2370654643,|unip - BR-153 - Vila Alto da Gloria, Goiania - GO|,,GYN
682077,10/08/2019 16:39:23,1570563560.7,,31522,,1,-16.7410490107,-49.2758351192,|Avenida Rio Verde 270, Goias|,-16.6936264952,-49.2660178989,|PUC Idiomas e Programa de Cursos de Extensao - Rua 9 - Setor Marista, Goiania - Goias|,,GYN
682076,10/08/2019 16:39:22,1570563560.3,,45023,,1,-16.6969756947,-49.2553815991,|Avenida 136, 1, Goiania|,-16.6735817756,-49.2486428842,|PUC Goias - Area 5 - Rua 232 - Setor Leste Universitario, Goiania - GO|,,GYN
682069,10/08/2019 16:38:22,1570563500.62,,23688,,1,-16.7158966531,-49.2657758296,|Rua T-037, 0154000, Goiania|,-16.6779378823,-49.2512224987,|Supermercado Master - Rua 24 - Setor Central, Goiania - State of Goias|,,GYN
682067,10/08/2019 16:38:07,1570563485.34,,44935,,1,-16.680477052,-49.2549370229,|Praca Doutor Pedro Ludovico Teixeira 0 332, Goias|,-16.7275855993,-49.2843497917,|Rua Tocari 241, Goias|,,GYN
682060,10/08/2019 16:37:28,1570563446.16,,33,None,1,-16.691359,-49.264922,,-16.70058,-49.275962,,,GYN
682058,10/08/2019 16:37:20,1570563438.3,,24400,,1,-16.7060911742,-49.2405803274,|Rua J, 1, Goiania|,-16.6769425674,-49.2386640608,|Residencial Calitri - Rua 259 - Setor Leste Universitario, Goiania - GO|,,GYN
682057,10/08/2019 16:37:19,1570563438.07,,48786,,1,-16.6945362989,-49.2685586214,|Rua 30, numero 215 - Setor Marista|,-16.7147339,-49.2838154,|Rua C-148 - Jardim America, Goiania - GO|,,GYN
682054,10/08/2019 16:37:09,1570563427.51,,51791,,1,-16.7298601774,-49.2803965509,|Avenida Dona Terezinha de Morais, 0196000, Goiania|,-16.706124757,-49.2731804028,|Avenida T 3, 7, Goiania|,,GYN
682052,10/08/2019 16:37:06,1570563423.89,,43625,,1,-16.7034105916,-49.2466982827,|Alameda Leopoldo de Bulhoes, 0004000, Goiania|,-16.7074937068,-49.2708032951,|Avenida T-010, 15, Goiania|,,GYN
682051,10/08/2019 16:36:46,1570563405.03,,510,,1,-16.7067458112,-49.2366772145,|Flamboyant Park Business - Rua 14 - Jardim Goias, Goiania - State of Goias|,-16.6756957668,-49.2451077327,|Centro de Aulas D - UFG - 1a Avenida - Setor Leste Universitario, Goiania - State of Goias|,,GYN
682048,10/08/2019 16:36:38,1570563396.08,,28195,,1,-16.7097990306,-49.2381547764,|Alameda Das Paineiras Qdb33 0 0, Goias|,-16.6970001013,-49.2394821346,|Avenida A 4 - B, Goias|,,GYN
682046,10/08/2019 16:36:17,1570563375.1,,53992,,1,-16.6846329185,-49.2643690109,|Rua 5 833, Goias|,-16.7052689577,-49.2406388372,|Metropolitan Mall - Avenida Deputado Jamel Cecilio - Jardim Goias, Goiania - GO|,,GYN
682045,10/08/2019 16:36:13,1570563371.52,,20085,,1,-16.6715965554,-49.2698863149,|Praca Santos Dumond, Praca Santos Dumont, Goiania|,-16.6896400716,-49.253436327,|Praca do Cruzeiro - Praca do Cruzeiro - Setor Sul, Goiania - GO|,,GYN
682044,10/08/2019 16:36:07,1570563366.53,,42857,,2,-16.7197084913,-49.2386633903,|Rodovia Transbrasiliana 213, Goias|,-16.7234762633,-49.2713484541,|Avenida Transbrasiliana 405, Goias|,,GYN
682042,10/08/2019 16:36:04,1570563363.3,,54767,None,1,-16.6773064569,-49.2500423267,|Alameda Do Botafogo Q A 136, Goias|,-16.7098314636,-49.2509408668,|Colegio Adventista Setor Pedro Ludovico - Alameda Leopoldo de Bulhoes - Setor Pedro Ludovico, Goiania - GO|,,GYN
682040,10/08/2019 16:36:00,1570563357.74,,16151,,1,-16.6675325871,-49.2480122298,|Avenida 11a Avenida Q 8, 430, Goiania|,-16.689642962,-49.2808525264,|Rua T 44 Q 26, 287, Goiania|,,GYN
682032,10/08/2019 16:35:42,1570563340.16,,28195,,1,-16.7097990306,-49.2381547764,|Alameda Das Paineiras Qdb33 0 0, Goias|,-16.6970001013,-49.2394821346,|Avenida A 4 - B, Goias|,,GYN
682026,10/08/2019 16:35:21,1570563318.87,,34554,,1,-16.685669944,-49.2592982948,|Avenida 85, 406, Goiania|,-16.7065990576,-49.2362926528,|Avenida H, 450, Goiania|,,GYN
682024,10/08/2019 16:35:13,1570563310.83,,54775,None,1,-16.6877510437,-49.2642851919,|Rua 5, 00D8000, Goiania|,-16.7146863921,-49.2419309914,|Rua Mil e Sessenta e Seis, 9, Goiania|,,GYN
682022,10/08/2019 16:34:52,1570563290.23,,28195,,1,-16.7097990306,-49.2381547764,|Alameda Das Paineiras Qdb33 0 0, Goias|,-16.6970001013,-49.2394821346,|Avenida A 4 - B, Goias|,,GYN
682021,10/08/2019 16:34:51,1570563288.81,,37627,,1,-16.6895697392,-49.271524474,|Rua Joao de Abreu 752, Goias|,-16.7141591283,-49.2521897703,|Praca Terminal Isidoria - Setor Pedro Ludovico, Goiania - GO|,,GYN
682019,10/08/2019 16:34:41,1570563279.66,,51417,,1,-16.6919176711,-49.2366064712,|Avenida Fued Jose Sebba, 0A13000, Goiania|,-16.6740873113,-49.245795384,|Avenida Primeira Avenida, 0068000, Goiania|,,GYN
682017,10/08/2019 16:34:25,1570563264.03,,24769,,1,-16.6818243463,-49.2544478551,|Rua 83 Q 15 179, Goias|,-16.7166201086,-49.2716971412,|Rua C-259 441, Goias|,,GYN
682016,10/08/2019 16:34:22,1570563260.38,,11611,,1,-16.7181463244,-49.2619164661,|Rua S-3 630, Goias|,-16.6697715864,-49.2735646293,|Rua Francisca C C D Tita Q 65a 141, Goias|,,GYN
682013,10/08/2019 16:33:28,1570563205.99,,44696,,1,-16.6737579315,-49.2453537158,|Avenida Primeira Avenida, 0068000, Goiania|,-16.6828597812,-49.2686675861,|Rua 4 Q G3, 595, Goiania|,,GYN
682012,10/08/2019 16:33:22,1570563200.69,,26258,,2,-16.7065717621,-49.2753134295,|Colegio Einstein - Avenida T-15 - Setor Bueno, Goiania - GO|,-16.7023142531,-49.2397459969,|Rua 55 626, Goias|,,GYN
682001,10/08/2019 16:32:07,1570563112.64,,6123,,1,-16.6763159563,-49.2607466877,|Avenida Tocantins, 470 - Setor Central|,-16.7101917582,-49.2372512072,|Flamboyant Shopping, Alameda das Paineiras, Goiania|,,GYN
682000,10/08/2019 16:31:43,1570563101.22,,26258,,2,-16.7065717621,-49.2753134295,|Colegio Einstein - Avenida T-15 - Setor Bueno, Goiania - GO|,-16.7023142531,-49.2397459969,|Rua 55 626, Goias|,,GYN
681998,10/08/2019 16:31:34,1570563092.89,,33,None,1,-16.691359,-49.264922,,-16.70058,-49.275962,,,GYN
681992,10/08/2019 16:30:14,1570563012.77,,42834,,2,-16.7197996842,-49.2386466265,|Rodovia Transbrasiliana 322, Goias|,-16.7242072,-49.2723153,|Rua Solimoes - Parque Amazonia, Goiania - GO|,,GYN
681988,10/08/2019 16:29:50,1570562987.88,,53906,,1,-16.6935490991,-49.2354182526,|Rua 24 20, Goias|,-16.7205600515,-49.2797850072,|Rua C-179 21, Goias|,,GYN
681987,10/08/2019 16:29:46,1570562985.03,,53311,,1,-16.6903901983,-49.2749381302,|Rua Dom Orione, 204, Goiania|,-16.6924241218,-49.2371398956,|Pontificia Universidade Catolica de Goias - Campus V - Avenida Fued Jose Sebba - Jardim Goias, Goiania - GO|,,GYN
681984,10/08/2019 16:29:27,1570562966.12,,50791,,1,-16.7118445447,-49.2384052277,|Rua Terezina 248, Goias|,-16.7037603011,-49.2451955751,|Avenida Botafogo 390, Goias|,,GYN
681982,10/08/2019 16:29:23,1570562961.11,,42834,,2,-16.7197996842,-49.2386466265,|Rodovia Transbrasiliana 322, Goias|,-16.7240834539,-49.271983467,|Avenida Transbrasiliana 352, Goias|,,GYN
681978,10/08/2019 16:29:02,1570562939.14,,4363,,1,-16.684450499,-49.2670606077,|Rua 7 694, Goias|,-16.7135162626,-49.2741661146,|Della Panificadora - Praca Wilson Sales - Setor Nova Suica, Goiania - GO|,,GYN
681975,10/08/2019 16:28:48,1570562926.57,,43625,,1,-16.7034105916,-49.2466982827,|Alameda Leopoldo de Bulhoes, 0004000, Goiania|,-16.7074937068,-49.2708032951,|Avenida T-010, 15, Goiania|,,GYN
681972,10/08/2019 16:28:41,1570562919.42,,26247,,1,-16.6770658981,-49.2550590634,|Acanto Restaurante - Rua 15 - Setor Central, Goiania - GO|,-16.7165167121,-49.2692908645,|Avenida T-5, 1134 - Setor Bueno|,,GYN
681970,10/08/2019 16:28:29,1570562907.9,,1975,,1,-16.7126486152,-49.2702001333,|Companhia do Olhar - Arte em Sobrancelhas - Rua T-62 - Setor Bueno, Goiania - GO|,-16.687817,-49.264223,|Cafe S/A Cafeteria - Setor Oeste, Goiania - GO|,,GYN
681968,10/08/2019 16:28:23,1570562902.05,,5458,,1,-16.6775264604,-49.2597509176,|Avenida Tocantins 303, Goias|,-16.6964570527,-49.2804314196,|Avenida T 3 Q 50 1011, Goias|,,GYN
681967,10/08/2019 16:28:19,1570562897.92,,42834,,2,-16.7197996842,-49.2386466265,|Rodovia Transbrasiliana 322, Goias|,-16.7240311155,-49.2721041664,|Avenida Transbrasiliana 352, Goias|,,GYN
681963,10/08/2019 16:28:01,1570562879.51,,53906,,1,-16.6935490991,-49.2354182526,|Rua 24 20, Goias|,-16.7205600515,-49.2797850072,|Rua C-179 21, Goias|,,GYN
681960,10/08/2019 16:27:41,1570562859.36,,51122,,1,-16.7168249748,-49.2818077281,|Rua C-151 462, Goias|,-16.6750206539,-49.2600821704,|Instituto Rodolfo Souza - Rua 9 - Centro, Goiania - GO|,,GYN
681957,10/08/2019 16:27:03,1570562821.37,,26094,,1,-16.675774776,-49.2574948445,|Rua 3 732, Goias|,-16.715341456,-49.2594146356,|Rua T-64 46, Goias|,,GYN
681954,10/08/2019 16:26:04,1570562762.08,,13627,,1,-16.684595985,-49.2664379999,|Rua 6 Q G3 574, Goias|,-16.6869998593,-49.2838978395,|Rua T-41 10, Goias|,,GYN
681952,10/08/2019 16:26:02,1570562761.01,,41469,,2,-16.6974349245,-49.2539922148,|Empadinha da Nenen - Avenida 136 - Setor Marista, Goiania - GO|,-16.6772586021,-49.2377031595,|Rua 259 - Setor Leste Universitario, Goiania - GO|,,GYN
681951,10/08/2019 16:25:58,1570562756.51,,5806,,1,-16.6819197324,-49.2559153587,|Palacio Pedro Ludovico Teixeira - Rua 82 - Setor Central, Goiania - GO|,-16.7264328878,-49.2846465111,|Praca Ubim, 12, Goiania|,,GYN
681947,10/08/2019 16:25:44,1570562742.46,,3566,,1,-16.6846236048,-49.2671699077,|Itau Personnalite - Setor Oeste, Goiania - GO|,-16.7372684221,-49.284084253,|Condominio Residencial Clube VIVAZ - Parque Amazonia, Goiania - GO|,,GYN
681943,10/08/2019 16:25:35,1570562733.74,,33,None,1,-16.691359,-49.264922,,-16.70058,-49.275962,,,GYN
681931,10/08/2019 16:25:06,1570562703.97,,37949,,1,-16.677568534,-49.264919199,|Rua 11 250, Goias|,-16.7111162543,-49.2341854423,|Academia Smart Fit - Flamboyant - Avenida Deputado Jamel Cecilio - Jardim Goias, Goiania - GO|,,GYN
681928,10/08/2019 16:24:56,1570562694.1,,52457,,1,-16.6785185605,-49.2569570616,|Avenida Goias, 0004000, Goiania|,-16.712121988,-49.258540906,|Viela Couto Magalhaes Q 70, 758, Goiania|,,GYN
681926,10/08/2019 16:24:48,1570562686.07,,26094,,1,-16.6754988859,-49.2565315962,|Rua 3 648, Goias|,-16.715341456,-49.2594149709,|Rua T-64 46, Goias|,,GYN
681924,10/08/2019 16:24:35,1570562673.71,,45103,,1,-16.6971044718,-49.2543023452,|Avenida 136 Q F42, 77, Goiania|,-16.6828687738,-49.2762662843,|Avenida R 9 Q R10, 133, Goiania|,,GYN
681923,10/08/2019 16:24:43,1570562673.32,,13627,,1,-16.684595985,-49.2664379999,|Rua 6 Q G3 574, Goias|,-16.6869998593,-49.2838978395,|Rua T-41 10, Goias|,FlexRequestAssignmentFailure,GYN
681922,10/08/2019 16:24:33,1570562671.15,,4363,,1,-16.6844203099,-49.2671404034,|Rua 8 538, Goias|,-16.7135162626,-49.2741661146,|Della Panificadora - Praca Wilson Sales - Setor Nova Suica, Goiania - GO|,,GYN
681919,10/08/2019 16:24:24,1570562662.67,,26258,,2,-16.7065717621,-49.2753134295,|Colegio Einstein - Avenida T-15 - Setor Bueno, Goiania - GO|,-16.7023142531,-49.2397459969,|Rua 55 626, Goias|,,GYN
681917,10/08/2019 16:24:19,1570562657.86,,26094,,1,-16.6754988859,-49.2565315962,|Rua 3 648, Goias|,-16.714910527,-49.2595175654,|Rua S-6 496, Goias|,,GYN
681914,10/08/2019 16:24:06,1570562643.84,,3566,,1,-16.6846236048,-49.2671699077,|Itau Personnalite - Setor Oeste, Goiania - GO|,-16.7372684221,-49.284084253,|Condominio Residencial Clube VIVAZ - Parque Amazonia, Goiania - GO|,,GYN
681911,10/08/2019 16:23:55,1570562633.37,,51434,,1,-16.680689665,-49.2664386705,|Avenida Republica do Libano Q D2, 1713, Goiania|,-16.7116981162,-49.2405221611,|Avenida Engenheiro Eurico Viana, Goiania|,,GYN
681910,10/08/2019 16:23:53,1570562631.64,,41241,,1,-16.682642032,-49.2578049749,|Crystal Plaza Hotel - Avenida 85 - Setor Sul, Goiania - GO|,-16.6988723387,-49.2762458324,|Matiz Arte Clube - Setor Bueno, Goiania - GO|,,GYN
681908,10/08/2019 16:23:29,1570562607.44,,3566,,1,-16.6846236048,-49.2671699077,|Itau Personnalite - Setor Oeste, Goiania - GO|,-16.7372684221,-49.284084253,|Condominio Residencial Clube VIVAZ - Parque Amazonia, Goiania - GO|,,GYN
681907,10/08/2019 16:23:22,1570562599.89,,31306,,1,-16.7155296259,-49.274478592,|Avenida C-255 255, Goias|,-16.6803083,-49.2535837,|America Policlinica - Rua 96 - Setor Sul, Goiania - GO|,,GYN
681904,10/08/2019 16:22:48,1570562566.23,,3587,,1,-16.6867304085,-49.2666042969,|Rua 10 707, Goias|,-16.6923907224,-49.2361907288,|Avenida Fued Jose Sebba Q A16 0, Goias|,,GYN
681902,10/08/2019 16:22:41,1570562558.12,,3566,,1,-16.6846236048,-49.2671699077,|Itau Personnalite - Setor Oeste, Goiania - GO|,-16.7372684221,-49.284084253,|Condominio Residencial Clube VIVAZ - Parque Amazonia, Goiania - GO|,,GYN
681901,10/08/2019 16:22:39,1570562557.12,,31306,,1,-16.7156156831,-49.2746569589,|Avenida C-255 250, Goias|,-16.6803084388,-49.2535838485,|America Policlinica - Rua 96 - Setor Sul, Goiania - GO|,,GYN
681900,10/08/2019 16:22:35,1570562553.81,,44069,,1,-16.6737481465,-49.2437284067,|Quinta Avenida 930, Goias|,-16.6886165561,-49.2729460448,|Drogasil - Avenida T-7 - Setor Oeste, Goiania - GO|,,GYN
681896,10/08/2019 16:22:16,1570562534.7,,26258,,2,-16.7065717621,-49.2753134295,|Colegio Einstein - Avenida T-15 - Setor Bueno, Goiania - GO|,-16.7023142531,-49.2397459969,|Rua 55 626, Goias|,,GYN
681895,10/08/2019 16:22:03,1570562521.35,,51879,None,1,-16.6976288925,-49.2562536523,|Av. 136, 738 - Setor Sul|,-16.7124336,-49.2866779,|Jardim America, Goiania - GO|,,GYN
681894,10/08/2019 16:21:39,1570562497.2,,10166,,1,-16.7016469415,-49.2408993468,|Rua 54 532, Goias|,-16.6750097,-49.2537273,|Super BARAO Supermercados - Centro - Rua 3 - Setor Central, Goiania - GO|,,GYN
681893,10/08/2019 16:21:37,1570562495.04,,31321,,1,-16.714285646,-49.2546356097,|Avenida Circular Q 61 287, Goias|,-16.7038518227,-49.2491722852,|Rua 1001 299, Goias|,,GYN
681892,10/08/2019 16:21:30,1570562488.6,,31306,,1,-16.7156156831,-49.2746569589,|Avenida C-255 250, Goias|,-16.6803083,-49.2535837,|America Policlinica - Rua 96 - Setor Sul, Goiania - GO|,,GYN
681890,10/08/2019 16:21:12,1570562470.69,,13909,,1,-16.6884717155,-49.2664943263,|Rua 9 1111, Goias|,-16.660367035,-49.2472233251,|Avenida Independencia Q 68 2913, Goias|,,GYN
681884,10/08/2019 16:19:55,1570562393.99,,34136,,1,-16.7082104506,-49.2362551019,|Avenida H, Goiania|,-16.7413447121,-49.2769083381,|Buriti Shopping - Vila Sao Tomaz, Aparecida de Goiania - GO|,,GYN
681883,10/08/2019 16:19:49,1570562386.86,,33,None,1,-16.691359,-49.264922,,-16.70058,-49.275962,,,GYN
681882,10/08/2019 16:19:48,1570562385.74,,40001,,1,-16.6730926188,-49.2693535611,|Avenida Republica do Libano Q 31a, 838, Goiania|,-16.6949589242,-49.2318666726,|BR-153, Goiania|,,GYN
681878,10/08/2019 16:19:10,1570562349.36,,49437,,1,-16.715668666,-49.2373618484,|Avenida Sao Joao 400, Goias|,-16.7189770198,-49.2926559225,|ACT Associacao Clube de Tenis - Rua C-163 - Jardim America, Goiania - GO|,,GYN
681875,10/08/2019 16:18:56,1570562334.62,,20936,,1,-16.6757503667,-49.2576916516,|Avenida Goias Q 8 495, Goias|,-16.7354203211,-49.274742119,|Avenida Rio Negro, 730 - Parque Amazonia|,,GYN
681874,10/08/2019 16:18:56,1570562334.14,,29558,,1,-16.6974031317,-49.2556347325,|Avenida 136 785, Goias|,-16.7154454954,-49.2803261429,|Avenida T-63 2309, Goias|,,GYN
681873,10/08/2019 16:18:54,1570562332.44,,54679,None,1,-16.694781974,-49.2809004709,|Rua T-30 1022, Goias|,-16.6908337915,-49.2540448532,|Academia Viana Fitness - Praca do Cruzeiro - Setor Sul, Goiania - GO|,,GYN
681871,10/08/2019 16:18:43,1570562321.84,,54020,,1,-16.6776449731,-49.2460367829,|Avenida Universitaria Q 88 0, Goias|,-16.7205966569,-49.2770310491,|Rua C-179 248, Goias|,,GYN
681868,10/08/2019 16:18:41,1570562318.8,,41469,,2,-16.6974349245,-49.2539922148,|Empadinha da Nenen - Avenida 136 - Setor Marista, Goiania - GO|,-16.6772586021,-49.2377031595,|Rua 259 - Setor Leste Universitario, Goiania - GO|,,GYN
681866,10/08/2019 16:18:28,1570562306.25,,5035,,1,-16.6776889738,-49.2570294812,|Avenida Goias 178, Goias|,-16.7412304128,-49.2789206654,|Avenida Alexandre de Morais 450, Goias|,,GYN
681861,10/08/2019 16:18:12,1570562289.53,,41709,,1,-16.7003004292,-49.2572316527,|Rua 1137 245, Goias|,-16.6759896425,-49.2450480536,|1a Avenida 0834, Goias|,,GYN
681850,10/08/2019 16:17:39,1570562256.97,,9351,,1,-16.6826166601,-49.2692492902,|Alameda das Rosas Q G2, 630, Goiania|,-16.6956933779,-49.2774521559,|Cei Flora - Rua T-49 - Setor Bueno, Goiania - GO|,,GYN
681847,10/08/2019 16:17:31,1570562249.89,,46368,,1,-16.6756973727,-49.2548790202,|Banana Shopping - Avenida Araguaia - Centro, Goiania - GO|,-16.7079961,-49.2729244,|Goiania Shopping - Avenida T-10 - Setor Bueno, Goiania - GO|,,GYN
681846,10/08/2019 16:17:32,1570562249.34,,4926,,1,-16.6820253958,-49.2577680945,|Rua 82 Q F17 541, Goias|,-16.7139179736,-49.2508308962,|Avenida Circular 614-666, Goias|,,GYN
681838,10/08/2019 16:17:07,1570562225.17,,42834,,2,-16.7197996842,-49.2386466265,|Rodovia Transbrasiliana 322, Goias|,-16.7240311155,-49.2721041664,|Avenida Transbrasiliana 352, Goias|,,GYN
681832,10/08/2019 16:16:50,1570562207.33,,54773,None,1,-16.6735082255,-49.2453176156,|1a Avenida 593, Goias|,-16.6981095,-49.257831,|Avenida 136, n276 - Setor Marista|,,GYN
681830,10/08/2019 16:16:47,1570562204.02,,32792,,1,-16.6805457819,-49.2663669214,|Rua 2 Q D2 0, Goias|,-16.7081552178,-49.284543246,|Rua C-208 - Jardim America, Goiania - GO|,,GYN
681823,10/08/2019 16:16:28,1570562186.32,,32792,,1,-16.6805457819,-49.2663669214,|Rua 2 Q D2 0, Goias|,-16.7081552178,-49.284543246,|Rua C-208 - Jardim America, Goiania - GO|,,GYN
681822,10/08/2019 16:16:24,1570562182.64,,33379,,1,-16.6919642377,-49.2787104473,|Praca Gilson Alves de Souza Q 33, 184, Goiania|,-16.7060486504,-49.2716243863,|EBM Walk Bueno - Rua T. 55 - Setor Bueno, Goiania - GO|,,GYN
681815,10/08/2019 16:16:12,1570562153.04,,54774,None,1,-16.6972390294,-49.2558161169,|Condominio Nasa Business Style - Avenida 136 - Setor Sul, Goiania - GO|,-16.7024529,-49.2644792,|Emporio Prime - Avenida 85 - Setor Marista, Goiania - GO|,FlexRequestAssignmentFailure,GYN
681811,10/08/2019 16:15:41,1570562139.6,,54773,None,1,-16.6735082255,-49.2453176156,|1a Avenida 593, Goias|,-16.6981095,-49.257831,|Avenida 136, n276 - Setor Marista|,,GYN
681793,10/08/2019 16:14:29,1570562067.12,,48093,None,1,-16.7201249599,-49.2601398379,|Rua 1116, 0086000, Goiania|,-16.7371200866,-49.279124178,|Rua Cananeia, 14, Goiania|,,GYN
681792,10/08/2019 16:14:29,1570562066.33,,18581,,1,-16.6846952237,-49.2642959207,|Rua 5 833, Goias|,-16.7166576781,-49.265483804,|Rua T-37 3708, Goias|,,GYN
681787,10/08/2019 16:14:12,1570562050.69,,29880,,1,-16.725651994,-49.270026125,|Rua Santarem, 0242000, Goiania|,-16.7001321546,-49.2411588505,|Rua 54, 403 - Jardim Goias|,,GYN
681783,10/08/2019 16:13:56,1570562035.33,,48093,None,1,-16.7201352352,-49.2601542547,|Rua 1116, 13, Goiania|,-16.6860045915,-49.2706289515,|Alameda das Rosas Q H5, 1017, Goiania|,,GYN
681781,10/08/2019 16:13:43,1570562021.72,,48093,None,1,-16.7201352352,-49.2601542547,|Rua 1116, 13, Goiania|,-16.7029266492,-49.2572276294,|Alameda Doutor Sebastiao Fleury, 8, Goiania|,,GYN
681779,10/08/2019 16:13:36,1570562014.11,,33,None,1,-16.691359,-49.264922,,-16.70058,-49.275962,,,GYN
681777,10/08/2019 16:13:30,1570562007.93,,26258,,2,-16.7065717621,-49.2753134295,|Colegio Einstein - Avenida T-15 - Setor Bueno, Goiania - GO|,-16.7023142531,-49.2397459969,|Rua 55 626, Goias|,,GYN
681775,10/08/2019 16:13:17,1570561996.26,,2407,,1,-16.6927096219,-49.2778846622,|Avenida T 1, 7, Goiania|,-16.7160713359,-49.2850290611,|Avenida T 63, 0339000, Goiania|,,GYN
681773,10/08/2019 16:13:12,1570561989.71,,53402,None,1,-16.6809417813,-49.258300513,|Rua Dona Gercina Borges Teixeira, 552, Goiania|,-16.6804825118,-49.2664765567,|Rua 2, 26, Goiania|,,GYN
681772,10/08/2019 16:13:06,1570561985.15,,17596,,1,-16.7186523844,-49.2376059294,|Avenida Brasil 1644, Goias|,-16.6638202421,-49.2456321046,|5a Avenida 733, Goias|,,GYN
681771,10/08/2019 16:12:58,1570561976.59,,48093,None,1,-16.7201352352,-49.2601542547,|Rua 1116, 13, Goiania|,-16.7029266492,-49.2572276294,|Alameda Doutor Sebastiao Fleury, 8, Goiania|,,GYN
681770,10/08/2019 16:12:43,1570561960.86,,43625,,1,-16.7034105916,-49.2466982827,|Alameda Leopoldo de Bulhoes, 0004000, Goiania|,-16.7074937068,-49.2708032951,|Avenida T-010, 15, Goiania|,,GYN
681769,10/08/2019 16:12:34,1570561952.15,,2407,,1,-16.6927096219,-49.2778846622,|Avenida T 1, 7, Goiania|,-16.7160713359,-49.2850290611,|Avenida T 63, 0339000, Goiania|,,GYN
681766,10/08/2019 16:12:20,1570561938.63,,48093,None,1,-16.7201352352,-49.2601542547,|Rua 1116, 13, Goiania|,-16.6993428037,-49.260391295,|Alameda Dom Emanoel Gomes Q 238, 66, Goiania|,,GYN
681764,10/08/2019 16:12:19,1570561936.78,,48958,,1,-16.6581558706,-49.2574643344,|Rua 301 162, Goias|,-16.7394905504,-49.2723274603,|Avenida Rio Verde 1560, Goias|,,GYN
681762,10/08/2019 16:12:06,1570561924.91,,31951,,1,-16.7134526823,-49.2671417445,|Avenida T-4 800, Goias|,-16.710642286,-49.256907776,|Rua 1024 Q 65 351, Goias|,,GYN
681759,10/08/2019 16:11:58,1570561916.35,,54586,,1,-16.7196548673,-49.2387207225,|Rodovia BR-153 - Pista Lateral, Goiania|,-16.7366436144,-49.2669171095,|Avenida Rio Verde, Goiania|,,GYN
681755,10/08/2019 16:11:31,1570561889.21,,40058,None,1,-16.6590292258,-49.258130528,|Araguaia Shopping, Rua 44, Goiania|,-16.6693383062,-49.2392474413,|Avenida Anhanguera, Goiania|,,GYN
681753,10/08/2019 16:11:24,1570561882.81,,54772,None,1,-16.7417755814,-49.2770531774,|Buriti Shopping, Rua Rio Verde, Goiania|,-16.7130005556,-49.2757020146,|Rua C-253, 26, Goiania|,,GYN
681752,10/08/2019 16:11:21,1570561879.07,,35209,,2,-16.7140772449,-49.2430598661,|Avenida Segunda Radial, 0065000, Goiania|,-16.7072188258,-49.2566435784,|Parque Areiao - Avenida Areiao - Setor Pedro Ludovico, Goiania - GO|,,GYN
681750,10/08/2019 16:11:13,1570561871.26,,2407,,1,-16.6927096219,-49.2778846622,|Avenida T 1, 7, Goiania|,-16.7160713359,-49.2850290611,|Avenida T 63, 0339000, Goiania|,,GYN
681748,10/08/2019 16:10:57,1570561855.59,,13496,,1,-16.6826998416,-49.255980067,|Posto Radial Ltda - Rua 82 - Setor Sul, Goiania - GO|,-16.7395162359,-49.2722195014,|Avenida Rio Verde 1560, Goias|,,GYN
681746,10/08/2019 16:10:38,1570561836.08,,40281,,1,-16.6737889362,-49.2566167563,|Rua 6 - Setor Central, Goiania - GO|,-16.6831456168,-49.2457655445,|Rua 245 - Setor Leste Universitario, Goiania - GO|,,GYN
681745,10/08/2019 16:10:28,1570561826.17,,17335,,1,-16.7126104027,-49.2584916204,|Alameda Couto Magalhaes 754, Goias|,-16.6713331854,-49.2668570951,|Fertile Diagnostico - Rua 13-A - Setor Aeroporto, Goiania - GO|,,GYN
681744,10/08/2019 16:10:26,1570561824.11,,33304,None,1,-16.7064564785,-49.2755990848,|Avenida T-15 106, Goias|,-16.6873235,-49.2776704,Emporio Ekitai,,GYN
681743,10/08/2019 16:10:22,1570561819.82,,51200,,1,-16.697056622,-49.2544545606,|Avenida 136 897, Goias|,-16.7413447121,-49.2769090086,|Buriti Shopping - Vila Sao Tomaz, Aparecida de Goiania - GO|,,GYN
681739,10/08/2019 16:10:06,1570561804.17,,3039,,1,-16.6603053643,-49.2551985383,|Mega Moda Hotel - Avenida Contorno - Setor Norte Ferroviario, Goiania - GO|,-16.6881457435,-49.2732541636,|Edificio Di Cavalcanti - Avenida T-7 - Setor Oeste, Goiania - GO|,,GYN
681737,10/08/2019 16:09:59,1570561797.79,,20936,,1,-16.6759748684,-49.2573748156,|Avenida Goias 400, Goias|,-16.7354203211,-49.274742119,|Avenida Rio Negro, 730 - Parque Amazonia|,,GYN
681736,10/08/2019 16:09:54,1570561792.82,,32356,,1,-16.6834857285,-49.2455747724,|Rua 219-A 3, Goias|,-16.7139866,-49.2601378,|Manipularte - Avenida T-63 - Setor Bela Vista, Goiania - GO|,,GYN
681732,10/08/2019 16:09:41,1570561779.54,,49437,,1,-16.7156808682,-49.2373685539,|Avenida Sao Joao 400, Goias|,-16.7189770198,-49.2926559225,|ACT Associacao Clube de Tenis - Rua C-163 - Jardim America, Goiania - GO|,,GYN
681731,10/08/2019 16:09:39,1570561776.77,,24110,None,3,-16.6896908137,-49.2753630504,|Avenida T 7 Q R32 441, Goias|,-16.7085424897,-49.272409603,|Avenida T-10 1118, Goias|,,GYN
681730,10/08/2019 16:09:37,1570561774.83,,46052,,1,-16.6873129869,-49.2645574361,|Avenida Republica do Libano Q D7, 2417, Goiania|,-16.7122690584,-49.2406851053,|Barbearia Mr.Tony - Avenida Engenheiro Eurico Viana - Vila Maria Jose, Goiania - GO|,,GYN
681725,10/08/2019 16:09:18,1570561756.29,,20267,,1,-16.7160408306,-49.269426316,|Residencial Eminent - Rua T-64 - Setor Bueno, Goiania - GO|,-16.6956933779,-49.2774521559,|Cei Flora - Rua T-49 - Setor Bueno, Goiania - GO|,,GYN
681723,10/08/2019 16:09:14,1570561752.21,,15550,,1,-16.7059991972,-49.2619010434,|Rua 1122 265, Goias|,-16.7179594414,-49.2413432524,|Rua 1073 59, Goias|,,GYN
681722,10/08/2019 16:09:09,1570561748.04,,54586,,1,-16.7196548673,-49.2387207225,|Rodovia BR-153 - Pista Lateral, Goiania|,-16.7366436144,-49.2669171095,|Avenida Rio Verde, Goiania|,,GYN
681718,10/08/2019 16:08:51,1570561729.16,,24110,None,3,-16.6896908137,-49.2753630504,|Avenida T 7 Q R32 441, Goias|,-16.7085424897,-49.272409603,|Avenida T-10 1118, Goias|,,GYN
681716,10/08/2019 16:08:34,1570561712.59,,15550,,1,-16.7059991972,-49.2619010434,|Rua 1122 265, Goias|,-16.7179594414,-49.2413432524,|Rua 1073 59, Goias|,,GYN
681712,10/08/2019 16:07:56,1570561674.56,,2260,,1,-16.6647706581,-49.2621655762,|Avenida Independencia 4273, Goias|,-16.7166528615,-49.2375492677,|Avenida Cuiaba 4168, Goias|,,GYN
681711,10/08/2019 16:07:54,1570561672.68,,51528,,1,-16.6692602579,-49.2392564937,|Avenida Anhanguera Q 13z, 37, Goiania|,-16.6981163809,-49.2701568827,|Rua Orestes Ribeiro, 18, Goiania|,,GYN
681710,10/08/2019 16:07:53,1570561671.51,,15550,,1,-16.7061395287,-49.2621615529,|Rua 1122 Q 226 157, Goias|,-16.7179594414,-49.2413432524,|Rua 1073 59, Goias|,,GYN
681709,10/08/2019 16:07:36,1570561653.98,,33,None,1,-16.691359,-49.264922,,-16.70058,-49.275962,,,GYN
681708,10/08/2019 16:07:34,1570561652.28,,51528,,1,-16.6692602579,-49.2392564937,|Avenida Anhanguera Q 13z, 37, Goiania|,-16.6981163809,-49.2701568827,|Rua Orestes Ribeiro, 18, Goiania|,,GYN
681707,10/08/2019 16:07:19,1570561637.45,,54687,None,1,-16.7027760391,-49.2585281655,|Terral Incorporadora - Alameda Ricardo Paranhos - Setor Marista, Goiania - GO|,-16.659964569,-49.2468253523,|Avenida Independencia 2845, Goias|,,GYN
681706,10/08/2019 16:07:11,1570561629.71,,9160,,1,-16.6851792123,-49.2606759444,|Avenida Assis Chateaubriand, 195, Goiania|,-16.7413967247,-49.2762864009,|Buriti Shopping, Rua Rio Verde, Goiania|,,GYN
681705,10/08/2019 16:07:09,1570561627.69,,15550,,1,-16.7062477477,-49.2619962618,|Rua 1122 205, Goias|,-16.7179594414,-49.2413432524,|Rua 1073 59, Goias|,,GYN
681704,10/08/2019 16:07:09,1570561627.3,,51672,,1,-16.7078623549,-49.2730265111,|Goiania Shopping, Avenida T-010, Goiania|,-16.7166730913,-49.25653629,|Rua 1040, 0082000, Goiania|,,GYN
681703,10/08/2019 16:07:14,1570561626.27,,51528,,1,-16.6692602579,-49.2392564937,|Avenida Anhanguera Q 13z, 37, Goiania|,-16.6981163809,-49.2701568827,|Rua Orestes Ribeiro, 18, Goiania|,FlexRequestAssignmentFailure,GYN
681702,10/08/2019 16:07:05,1570561609.04,,40058,None,1,-16.6590292258,-49.258130528,|Araguaia Shopping, Rua 44, Goiania|,-16.6693383062,-49.2392474413,|Avenida Anhanguera, Goiania|,,GYN
681701,10/08/2019 16:06:45,1570561602.82,,47954,,1,-16.6720796136,-49.2452763766,|Rua 227 Q 66 95, Goias|,-16.6887101,-49.2751814,|Rua R 16 - Setor Oeste, Goiania - GO|,,GYN
681699,10/08/2019 16:06:30,1570561588.13,,15550,,1,-16.7059921324,-49.2619121075,|Rua 1122 265, Goias|,-16.7179594414,-49.2413432524,|Rua 1073 59, Goias|,,GYN
681698,10/08/2019 16:06:28,1570561585.64,,51672,,1,-16.7078623549,-49.2730265111,|Goiania Shopping, Avenida T-010, Goiania|,-16.7166730913,-49.25653629,|Rua 1040, 0082000, Goiania|,,GYN
681695,10/08/2019 16:05:55,1570561553.26,,33302,,1,-16.6932427257,-49.2733500525,|Avenida Castelo Branco 1, Goias|,-16.6787950887,-49.2468146235,|Rua 239 310, Goias|,,GYN
681694,10/08/2019 16:05:52,1570561550.55,,15550,,1,-16.7062031114,-49.2623305321,|Rua 1124 161, Goias|,-16.7179594414,-49.2413432524,|Rua 1073 59, Goias|,,GYN
681693,10/08/2019 16:05:40,1570561538.38,,9701,,1,-16.7130647782,-49.267314747,|Avenida T-4 740, Goias|,-16.6848417,-49.2544287,|Conceito - Excelencia em Medicina do Trabalho - Rua 94 - Setor Sul, Goiania - GO|,,GYN
681692,10/08/2019 16:05:37,1570561535.91,,33779,,1,-16.6971998503,-49.2557752132,|Avenida 136, 761, Goiania|,-16.7189420196,-49.284263961,|Rua C 167 Q 379, 1034, Goiania|,,GYN
681691,10/08/2019 16:05:23,1570561520.62,,33779,,1,-16.6971998503,-49.2557752132,|Avenida 136, 761, Goiania|,-16.7189420196,-49.284263961,|Rua C-167, 1056 - Jardim America|,,GYN
681690,10/08/2019 16:05:19,1570561518.01,,15550,,1,-16.7057310577,-49.262047559,|Rua 1124 Q 226 137, Goias|,-16.7179594414,-49.2413432524,|Rua 1073 59, Goias|,,GYN
681689,10/08/2019 16:05:15,1570561513.69,,40058,None,1,-16.6590292258,-49.258130528,|Araguaia Shopping, Rua 44, Goiania|,-16.6693383062,-49.2392474413,|Avenida Anhanguera, Goiania|,,GYN
681688,10/08/2019 16:05:06,1570561503.84,,46052,,1,-16.6873129869,-49.2645574361,|Avenida Republica do Libano Q D7, 2417, Goiania|,-16.6928367962,-49.2388544977,|Rua 23, 28, Goiania|,,GYN
681687,10/08/2019 16:04:44,1570561482.65,,15550,,1,-16.7057310577,-49.262047559,|Rua 1124 Q 226 137, Goias|,-16.7179594414,-49.2413432524,|Rua 1073 59, Goias|,,GYN
681686,10/08/2019 16:04:32,1570561470.64,,40058,None,1,-16.6590292258,-49.258130528,|Araguaia Shopping, Rua 44, Goiania|,-16.6693383062,-49.2392474413,|Avenida Anhanguera, Goiania|,,GYN
681685,10/08/2019 16:04:18,1570561456.6,,33343,,1,-16.6774965913,-49.2444432154,|Praca Universitaria 23, Goias|,-16.7147824041,-49.2594793439,|Rua S-6 496, Goias|,,GYN
681684,10/08/2019 16:04:05,1570561442.71,,7995,,1,-16.6736431209,-49.2457497865,|1a Avenida 516, Goias|,-16.6887761696,-49.2710607871,|Residencial Cabralia - Rua 12 - Setor Oeste, Goiania - GO|,,GYN
681683,10/08/2019 16:03:50,1570561427.97,,15550,,1,-16.7061000304,-49.2620120198,|Rua 1122 Q 226 0, Goias|,-16.7179594414,-49.2413432524,|Rua 1073 59, Goias|,,GYN
681682,10/08/2019 16:03:45,1570561423.58,,54769,None,1,-16.6966397818,-49.2707972601,|Rua T-51 170, Goias|,-16.6845038118,-49.2471804097,|Rua 91 665, Goias|,,GYN
681681,10/08/2019 16:03:29,1570561407.61,,7995,,1,-16.6736431209,-49.2457497865,|1a Avenida 516, Goias|,-16.6887761696,-49.2710607871,|Residencial Cabralia - Rua 12 - Setor Oeste, Goiania - GO|,,GYN
681680,10/08/2019 16:02:58,1570561376.64,,5946,,1,-16.6702764898,-49.2573583871,|Rua 68 12, Goias|,-16.7100257402,-49.2948724329,|Avenida T-9 3656, Goias|,,GYN
681679,10/08/2019 16:02:47,1570561364.73,,9220,,1,-16.6759369697,-49.23888769,|Avenida Universitaria 1750, Goias|,-16.7040436,-49.2410689,|Tecar Honda Jardim Goias - Avenida Deputado Jamel Cecilio - Jardim Goias, Goiania - GO|,,GYN
681678,10/08/2019 16:02:41,1570561359.49,,15181,,1,-16.6851792123,-49.2607751861,|Avenida Assis Chateaubriand, 195, Goiania|,-16.7164752893,-49.2658801004,|Condominio Zolder - Rua T-37 - Setor Bueno, Goiania - GO|,,GYN
681677,10/08/2019 16:02:40,1570561357.33,,19897,,1,-16.6858616759,-49.2429462075,|Rua 218 320-c, Goias|,-16.7101919,-49.2372513,|Flamboyant Shopping Center - Avenida Deputado Jamel Cecilio - Jardim Goias, Goiania - GO|,,GYN
681676,10/08/2019 16:02:34,1570561351.9,,10067,,1,-16.7030480363,-49.2566177621,|Rua 1139 Q 251, 323, Goiania|,-16.6840689592,-49.2573178187,|Rua 85a Q F16, 72, Goiania|,,GYN
681675,10/08/2019 16:02:34,1570561351.62,,5946,,1,-16.6702331298,-49.2562124133,|Avenida Paranaiba Q 106 686, Goias|,-16.7100257402,-49.2948724329,|Avenida T-9 3656, Goias|,,GYN
681674,10/08/2019 16:01:46,1570561303.54,,31951,,1,-16.712933764,-49.2666586116,|Avenida T-4 613, Goias|,-16.7104791585,-49.2568209395,|Rua 1024 Q 64 366, Goias|,,GYN
681673,10/08/2019 16:01:44,1570561302.84,,7995,,1,-16.6736431209,-49.2457497865,|1a Avenida 516, Goias|,-16.6887761696,-49.2710607871,|Residencial Cabralia - Rua 12 - Setor Oeste, Goiania - GO|,,GYN
681672,10/08/2019 16:01:35,1570561293.1,,33,None,1,-16.691359,-49.264922,,-16.70058,-49.275962,,,GYN
681671,10/08/2019 16:01:08,1570561266.65,,7995,,1,-16.6736431209,-49.2457497865,|1a Avenida 516, Goias|,-16.6887761696,-49.2710607871,|Residencial Cabralia - Rua 12 - Setor Oeste, Goiania - GO|,,GYN
681670,10/08/2019 16:01:08,1570561266.51,,48303,,3,-16.7203767031,-49.2607014254,|Avenida T-14 976, Goias|,-16.6634511,-49.2591826,|Fujioka - Av. Independencia - Setor Central, Goiania - GO|,,GYN
681669,10/08/2019 16:01:04,1570561262.71,,33229,,1,-16.6967412622,-49.258376956,|Clube de Engenharia de Goias - Rua 132 - Setor Sul, Goiania - GO|,-16.6727142681,-49.2767561227,|Alameda P 2 Q P66 1095, Goias|,,GYN
681668,10/08/2019 16:00:46,1570561243.69,,54768,None,1,-16.6994009293,-49.2418059334,|R 54, 21, Goiania|,-16.686954255,-49.2631750926,|Rua 3, 1022 - Setor Oeste|,,GYN
681667,10/08/2019 16:00:38,1570561236.05,,40495,,1,-16.6760872797,-49.2449347302,|Avenida Primeira Avenida, 0062000, Goiania|,-16.6903909245,-49.2540646344,|Praca Genaro Maltez, Goiania|,,GYN
681666,10/08/2019 16:00:37,1570561235.93,,5946,,1,-16.670164075,-49.2545826361,|Avenida Paranaiba 480, Goias|,-16.7100257402,-49.2948724329,|Avenida T-9 3656, Goias|,,GYN
681665,10/08/2019 16:00:36,1570561234.42,,15181,,1,-16.6851792123,-49.2607751861,|Avenida Assis Chateaubriand, 195, Goiania|,-16.7164752893,-49.2658801004,|Condominio Zolder - Rua T-37 - Setor Bueno, Goiania - GO|,,GYN
681664,10/08/2019 16:00:31,1570561229.59,,48303,,3,-16.7203767031,-49.2607014254,|Avenida T-14 976, Goias|,-16.6634511,-49.2591826,|Fujioka - Av. Independencia - Setor Central, Goiania - GO|,,GYN
681663,10/08/2019 16:00:29,1570561226.9,,51200,,1,-16.697056622,-49.2544545606,|Avenida 136 897, Goias|,-16.7413447121,-49.2769090086,|Buriti Shopping - Vila Sao Tomaz, Aparecida de Goiania - GO|,,GYN
681662,10/08/2019 16:00:25,1570561224.42,,26258,,2,-16.7065717621,-49.2753134295,|Colegio Einstein - Avenida T-15 - Setor Bueno, Goiania - GO|,-16.7023142531,-49.2397459969,|Rua 55 626, Goias|,,GYN
681661,10/08/2019 16:00:22,1570561220.32,,7995,,1,-16.6736431209,-49.2457497865,|1a Avenida 516, Goias|,-16.6887761696,-49.2710607871,|Residencial Cabralia - Rua 12 - Setor Oeste, Goiania - GO|,,GYN
681660,10/08/2019 16:00:13,1570561211.12,,38138,,2,-16.675581107,-49.2521914467,|Rua 21 389, Goias|,-16.6941366,-49.2675427,|Rua 13, 864 - Setor Marista|,,GYN
681659,10/08/2019 16:00:10,1570561207.58,,54758,None,1,-16.6893452535,-49.2656484246,|Rua Joao de Abreu, 145 - Setor Oeste|,-16.6716653,-49.236005,|Terminal Praca Da Biblia - Avenida Anhanguera - Setor Leste Universitario, Goiania - GO|,,GYN
681658,10/08/2019 16:00:00,1570561197.96,,1684,,1,-16.7129796832,-49.2611765116,|Edificio Dom Jerson - Rua S-4 - Setor Bela Vista, Goiania - GO|,-16.6947459,-49.256162,|Rua 131, n 154 - Setor Sul|,,GYN
681657,10/08/2019 15:59:50,1570561188.6,,54758,None,1,-16.6893452535,-49.2656484246,|Rua Joao de Abreu, 145 - Setor Oeste|,-16.6920432402,-49.2705270275,|Avenida D 851, Goias|,,GYN
681656,10/08/2019 15:59:45,1570561183.61,,5946,,1,-16.6699424572,-49.2549078539,|Rua 56 42, Goias|,-16.7100257402,-49.2948724329,|Avenida T-9 3656, Goias|,,GYN
681655,10/08/2019 15:59:37,1570561175.6,,17335,,1,-16.7126104027,-49.2584916204,|Alameda Couto Magalhaes 754, Goias|,-16.6713331854,-49.2668570951,|Fertile Diagnostico - Rua 13-A - Setor Aeroporto, Goiania - GO|,,GYN
681654,10/08/2019 15:59:35,1570561172.94,,15181,,1,-16.6851792123,-49.2607751861,|Avenida Assis Chateaubriand, 195, Goiania|,-16.7164752893,-49.2658801004,|Condominio Zolder - Rua T-37 - Setor Bueno, Goiania - GO|,,GYN
681653,10/08/2019 15:59:23,1570561161.05,,10949,,1,-16.6974622213,-49.255495593,|Avenida 136 803, Goias|,-16.7378469935,-49.2692824826,|Avenida Rio Verde Q 8 1146, Goias|,,GYN
681652,10/08/2019 15:59:19,1570561157.77,,1684,,1,-16.7129796832,-49.2611765116,|Edificio Dom Jerson - Rua S-4 - Setor Bela Vista, Goiania - GO|,-16.6947459,-49.256162,|Rua 131, n 154 - Setor Sul|,,GYN
681651,10/08/2019 15:59:16,1570561155.35,,24042,,1,-16.7143537216,-49.2720837146,|Avenida T 63, 3, Goiania|,-16.6661007186,-49.2550419644,|IFG - Campus Goiania - Rua 75 - Centro, Goiania - GO|,,GYN
681650,10/08/2019 15:59:12,1570561149.93,,5946,,1,-16.6691516968,-49.2545729131,|Rua 56 Q 102 126, Goias|,-16.7100257402,-49.2948724329,|Avenida T-9 3656, Goias|,,GYN
681649,10/08/2019 15:59:11,1570561148.98,,50335,,1,-16.6973395461,-49.2557074875,|Avenida 136, 761, Goiania|,-16.7189420196,-49.284263961,|Rua C-167, 1056 - Jardim America|,,GYN
681648,10/08/2019 15:59:01,1570561139.51,,15181,,1,-16.6848143743,-49.2611828819,|Avenida Assis Chateaubriand, 195, Goiania|,-16.7164752893,-49.2658801004,|Condominio Zolder - Rua T-37 - Setor Bueno, Goiania - GO|,,GYN
681647,10/08/2019 15:59:01,1570561139.09,,17335,,1,-16.7126104027,-49.2584916204,|Alameda Couto Magalhaes 754, Goias|,-16.6713331854,-49.2668570951,|Fertile Diagnostico - Rua 13-A - Setor Aeroporto, Goiania - GO|,,GYN
681646,10/08/2019 15:58:45,1570561123.67,,1684,,1,-16.7129796832,-49.2611765116,|Edificio Dom Jerson - Rua S-4 - Setor Bela Vista, Goiania - GO|,-16.6947459,-49.256162,|Rua 131, n 154 - Setor Sul|,,GYN
681645,10/08/2019 15:58:32,1570561110.56,,5946,,1,-16.6696048909,-49.2541735992,|Rua Doutor Pedro Virgiano 87, Goias|,-16.7100257402,-49.2948724329,|Avenida T-9 3656, Goias|,,GYN
681644,10/08/2019 15:58:29,1570561107.28,,50335,,1,-16.6986395143,-49.2549242824,|Alameda Ricardo Paranhos, 25, Goiania|,-16.7189420196,-49.284263961,|Rua C 167 Q 379, 1034, Goiania|,,GYN
681643,10/08/2019 15:58:20,1570561098.53,,24042,,1,-16.7153478782,-49.2702437192,|Avenida T 15, 0152000, Goiania|,-16.6661007186,-49.2550419644,|Rua 75 Q 118, 46, Goiania|,,GYN
681642,10/08/2019 15:58:04,1570561081.98,,52458,,1,-16.6721750046,-49.2460931093,|Hoffmann House - Language Course - Rua 227 - Setor Leste Universitario, Goiania - GO|,-16.6924241218,-49.2371398956,|Pontificia Universidade Catolica de Goias - Campus V - Avenida Fued Jose Sebba - Jardim Goias, Goiania - GO|,,GYN
681641,10/08/2019 15:57:54,1570561072.07,,5946,,1,-16.6704129934,-49.2556001991,|Avenida Paranaiba Q 60 629, Goias|,-16.7100257402,-49.2948724329,|Avenida T-9 3656, Goias|,,GYN
681640,10/08/2019 15:57:30,1570561048.83,,5946,,1,-16.6705164148,-49.2550473288,|Avenida Paranaiba 529, Goias|,-16.7100257402,-49.2948724329,|Avenida T-9 3656, Goias|,,GYN
681639,10/08/2019 15:57:14,1570561031.79,,48303,,3,-16.7203767031,-49.2607014254,|Avenida T-14 976, Goias|,-16.6617208,-49.2540746,|Mega Moda Park - Setor Central, Goiania - GO|,,GYN
681638,10/08/2019 15:56:50,1570561008.36,,49813,,1,-16.6736058641,-49.2461102083,|1a Avenida 516, Goias|,-16.7186584853,-49.2404571176,|Rua 1081 288, Goias|,,GYN
681637,10/08/2019 15:56:34,1570560992.69,,49813,,1,-16.6736058641,-49.2461102083,|1a Avenida 516, Goias|,-16.7191683972,-49.2391505465,|BR-153 702, Goias|,,GYN
681636,10/08/2019 15:56:21,1570560979.22,,48303,,3,-16.7203767031,-49.2607014254,|Avenida T-14 976, Goias|,-16.6792731,-49.252069,|Rua 10 - Setor Sul, Goiania - GO|,,GYN
681635,10/08/2019 15:55:56,1570560955.16,,50289,,1,-16.6737873303,-49.2574891448,|Rua 4 573, Goias|,-16.6589787968,-49.2613119632,|Avenida Goias 2954, Goias|,,GYN
681634,10/08/2019 15:55:53,1570560951.7,,42349,,1,-16.6877876554,-49.2643301189,|Rua 5 Q D8, 2461, Goiania|,-16.746354872,-49.2850783467,|Avenida Rio Verde, 2358, Goiania|,,GYN
681633,10/08/2019 15:55:42,1570560940.4,,48303,,3,-16.7203767031,-49.2607014254,|Avenida T-14 976, Goias|,-16.6792731,-49.252069,|Rua 10 - Setor Sul, Goiania - GO|,,GYN
681632,10/08/2019 15:55:41,1570560938.76,,33,None,1,-16.691359,-49.264922,,-16.70058,-49.275962,,,GYN
681631,10/08/2019 15:55:38,1570560935.97,,51056,,1,-16.7128239432,-49.2627258226,|Rua S-2, 59 - Setor Bela Vista|,-16.6769486697,-49.246208109,|Praca Universitaria 1440, Goias|,,GYN
681630,10/08/2019 15:55:34,1570560932.51,,48828,,1,-16.6692772808,-49.246692583,|2a Avenida 227, Goias|,-16.6752091847,-49.2601126805,|Renove Shopping - Setor Central, Goiania - GO|,,GYN
681629,10/08/2019 15:55:34,1570560931.79,,43441,,1,-16.6955681324,-49.2609793693,|Rua 146 365, Goias|,-16.6849317,-49.2556458,|Rua 94 - Setor Sul, Goiania - GO|,,GYN
681628,10/08/2019 15:55:33,1570560930.85,,2440,,1,-16.6877060819,-49.2564712465,|Rua 104 758, Goias|,-16.7469013101,-49.2857361585,|Avenida Rio Verde 2482, Goias|,,GYN
681627,10/08/2019 15:55:07,1570560905.3,,14960,,1,-16.6757285267,-49.2615355924,|Avenida Anhanguera 5395, Goias|,-16.687093,-49.257511,|Lumina Diagnostico Por Imagem - Unidade Sul - Rua 103-B - Setor Sul, Goiania - GO|,,GYN
681626,10/08/2019 15:54:59,1570560897.86,,54767,None,1,-16.6773064569,-49.2500423267,|Alameda Do Botafogo Q A 136, Goias|,-16.7098314636,-49.2509408668,|Colegio Adventista Setor Pedro Ludovico - Alameda Leopoldo de Bulhoes - Setor Pedro Ludovico, Goiania - GO|,,GYN
681625,10/08/2019 15:54:48,1570560886.85,,46060,,1,-16.6985720754,-49.2537424341,|Rua 135-A 165, Goias|,-16.7119826242,-49.2404098436,|Avenida Engenheiro Eurico Viana, Goiania - GO|,,GYN
681624,10/08/2019 15:54:45,1570560883.43,,2440,,1,-16.6877060819,-49.2564712465,|Rua 104 758, Goias|,-16.7426800185,-49.2779349536,|Avenida Rio Verde 2194, Goias|,,GYN
681623,10/08/2019 15:54:43,1570560881.25,,49365,,1,-16.6885147502,-49.2409667373,|9a Avenida 500, Goias|,-16.677341786,-49.2576500773,|Rua 2 230, Goias|,,GYN
681622,10/08/2019 15:54:12,1570560849.98,,54767,None,1,-16.6773064569,-49.2500423267,|Alameda Do Botafogo Q A 136, Goias|,-16.7098316,-49.250941,|Colegio Adventista Setor Pedro Ludovico - Alameda Leopoldo de Bulhoes - Setor Pedro Ludovico, Goiania - GO|,,GYN
681621,10/08/2019 15:53:54,1570560833.25,,13806,,1,-16.6967255264,-49.2698695511,|Avenida Mutirao 2657, Goias|,-16.7013778324,-49.2516804859,|Rua 122 216, Goias|,,GYN
681620,10/08/2019 15:53:34,1570560812.57,,33153,,1,-16.6888204889,-49.2394204438,|Apoio Rural Consultoria - Jardim Goias, Goiania - GO|,-16.7006225268,-49.241065979,|Edificio Itacaiunas - Rua 54 - Jardim Goias, Goiania - GO|,,GYN
681619,10/08/2019 15:53:29,1570560807.95,,52694,None,1,-16.7080203468,-49.2367466167,|Jardim Goias Alameda das Paineiras, Goias|,-16.6908652,-49.2663256,|Rua 9 - Setor Marista, Goiania - GO|,,GYN
681618,10/08/2019 15:53:06,1570560784.95,,20643,,2,-16.7170160332,-49.2619818449,|Rua S-3 524, Goias|,-16.7101917582,-49.2372512072,|Flamboyant Shopping Center - Avenida Deputado Jamel Cecilio - Jardim Goias, Goiania - GO|,,GYN
681617,10/08/2019 15:52:16,1570560734.02,,18835,,1,-16.6821914381,-49.269717671,|Alameda das Rosas, 00G2000, Goiania|,-16.6794053119,-49.257177338,|Praca Doutor Pedro L Teixeira Q 1, 300, Goiania|,,GYN
681616,10/08/2019 15:51:57,1570560715.08,,13483,,1,-16.6736260984,-49.2665281892,|Rua 11-A 301, Goias|,-16.7079961,-49.2729244,|Goiania Shopping - Avenida T-10 - Setor Bueno, Goiania - State of Goias|,,GYN
681615,10/08/2019 15:51:10,1570560667.7,,24042,,1,-16.7153478782,-49.2702437192,|Avenida T 15, 0152000, Goiania|,-16.6661007186,-49.2550419644,|Rua 75 Q 118, 46, Goiania|,,GYN
681614,10/08/2019 15:51:09,1570560666.97,,54762,None,1,-16.7261670247,-49.2687745392,|Rua Santarem 1091, Goias|,-16.6720764018,-49.2531506717,|Colegio Vitoria - Cursos Tecnicos - Rua 4 - Setor Central, Goiania - GO|,,GYN
681613,10/08/2019 15:50:55,1570560652.99,,13806,,1,-16.6967255264,-49.2698695511,|Avenida Mutirao 2657, Goias|,-16.6993540434,-49.250484556,|Rua 122 288, Goias|,,GYN
681612,10/08/2019 15:50:47,1570560645.46,,22173,None,1,-16.6911279651,-49.2534802482,|Rua 89 5, Goias|,-16.6943320511,-49.2830418795,|Avenida T-3 30, Goias|,,GYN
681611,10/08/2019 15:50:43,1570560642.11,,10712,,1,-16.7052468,-49.2406589538,|Avenida E 18, Goias|,-16.6884402424,-49.2341079935,|Enel Distribuicao Goias - Jardim Goias, Goiania - GO|,,GYN
681610,10/08/2019 15:50:24,1570560622.26,,54762,None,1,-16.7261670247,-49.2687745392,|Rua Santarem 1091, Goias|,-16.6720763,-49.2531508,|Colegio Vitoria - Cursos Tecnicos - Rua 4 - Setor Central, Goiania - GO|,,GYN
681609,10/08/2019 15:50:09,1570560608.38,,48828,,1,-16.6692772808,-49.246692583,|2a Avenida 227, Goias|,-16.6752091847,-49.2601126805,|Renove Shopping - Setor Central, Goiania - GO|,,GYN
681608,10/08/2019 15:50:05,1570560603.77,,17335,,1,-16.7126104027,-49.2584916204,|Alameda Couto Magalhaes 754, Goias|,-16.6713331854,-49.2668570951,|Fertile Diagnostico - Rua 13-A - Setor Aeroporto, Goiania - GO|,,GYN
681606,10/08/2019 15:49:39,1570560577.67,,12918,,1,-16.675304253,-49.2624059692,|IBGE - Ag. Goiania - Avenida Tocantins - Setor Central, Goiania - GO|,-16.7140049948,-49.2722667754,|Igreja Universal T-63 - Avenida T-63 - Nova Suica, Goiania - GO|,,GYN
681605,10/08/2019 15:49:32,1570560570.99,,33,None,1,-16.691359,-49.264922,,-16.70058,-49.275962,,,GYN
681604,10/08/2019 15:49:29,1570560566.97,,17335,,1,-16.7126104027,-49.2584916204,|Alameda Couto Magalhaes 754, Goias|,-16.6713331854,-49.2668570951,|Fertile Diagnostico - Rua 13-A - Setor Aeroporto, Goiania - GO|,,GYN
681603,10/08/2019 15:49:17,1570560555.14,,1843,,1,-16.6775823445,-49.2384504899,|Rua 261 800, Goias|,-16.7026691027,-49.2490693554,|Rua Senador Domingos Velasco 196, Goias|,,GYN
681602,10/08/2019 15:48:52,1570560531.31,,52348,,1,-16.702294343,-49.2326368019,|Rua 72 312, Goias|,-16.7174748937,-49.2675950378,|Rua T-65 964, Goias|,,GYN
681601,10/08/2019 15:48:44,1570560522.91,,1843,,1,-16.6775717458,-49.2383532599,|Avenida Castelo Branco 682, Goias|,-16.7173862685,-49.2930418253,|Avenida T-63 3610, Goias|,,GYN
681600,10/08/2019 15:48:41,1570560518.91,,29832,,1,-16.6813162617,-49.2669355497,|Mattura Steak House Restaurante - Avenida Republica do Libano - Setor Oeste, Goiania - GO|,-16.7189041294,-49.257523343,|Avenida 4a Radial 795, Goias|,,GYN
681599,10/08/2019 15:48:01,1570560479.14,,27759,,1,-16.7061006726,-49.2618473992,|Rua 1122 Q 226 136, Goias|,-16.7016783,-49.2641952,|Av. 85, no 54 - Setor Bueno|,,GYN
681598,10/08/2019 15:47:45,1570560463.59,,40538,,1,-16.7193125723,-49.2878517509,|Avenida C-104 1596, Goias|,-16.6872872,-49.2773904,|Rua T-46, 312 - Setor Oeste|,,GYN
681597,10/08/2019 15:47:55,1570560460.68,,49635,,1,-16.7094624981,-49.266734384,|Avenida T 12 Q 120 38, Goias|,-16.7310966708,-49.2712860927,|Rua Guayana - Parque Amazonia, Goiania - GO|,,GYN
681593,10/08/2019 15:47:10,1570560422.73,,54760,None,1,-16.7077062897,-49.2328815535,|Walmart Goiania - Avenida Deputado Jamel Cecilio - Jardim Goias, Goiania - GO|,-16.692485461,-49.2707969248,|Extra Hiper - Avenida Portugal - Setor Marista, Goiania - GO|,,GYN
681592,10/08/2019 15:46:54,1570560411.76,,54690,None,1,-16.7402017159,-49.2831186578,|Residencial Amazon - Rua Canuma - Parque Amazonia, Goiania - GO|,-16.6990792,-49.2732457,|TRT - Setor Bueno, Goiania - GO|,,GYN
681591,10/08/2019 15:46:53,1570560411.29,,41543,,1,-16.6773064569,-49.2648172751,|Rua 11, 250 - Setor Central|,-16.6728308567,-49.234155938,|Rua 262, 45 - Setor Leste Universitario|,,GYN
681590,10/08/2019 15:46:45,1570560403.87,,40538,,1,-16.7193125723,-49.2878517509,|Avenida C-104 1596, Goias|,-16.6872872,-49.2773904,|Rua T-46, 312 - Setor Oeste|,,GYN
681589,10/08/2019 15:46:43,1570560401.09,,37588,,1,-16.7354395856,-49.2736943811,|Reserva do Amazonia - Parque Amazonia, Goiania - GO|,-16.6933002108,-49.2369538173,|Rua 29 6, Goias|,,GYN
681588,10/08/2019 15:46:32,1570560390.41,,923,None,1,-16.7106914169,-49.2406867817,|Avenida Engenheiro Eurico Viana 25, Goias|,-16.7274462468,-49.2796327919,|Rua Umiri 509, Goias|,,GYN
681587,10/08/2019 15:46:10,1570560368.53,,43521,,1,-16.707235203,-49.2756594345,|Avenida C. 235 238, Goias|,-16.7161175754,-49.2743726447,|Rua C-167 9, Goias|,,GYN
681586,10/08/2019 15:46:08,1570560365.98,,37588,,1,-16.7354395856,-49.2736943811,|Reserva do Amazonia - Parque Amazonia, Goiania - GO|,-16.6933002108,-49.2369538173,|Rua 29 6, Goias|,,GYN
681585,10/08/2019 15:45:32,1570560329.77,,37588,,1,-16.7354395856,-49.2736943811,|Reserva do Amazonia - Parque Amazonia, Goiania - GO|,-16.6933002108,-49.2369538173,|Rua 29 6, Goias|,,GYN
681584,10/08/2019 15:45:26,1570560324.24,,49365,,1,-16.6885147502,-49.2409667373,|9a Avenida 500, Goias|,-16.677341786,-49.2576500773,|Rua 2 230, Goias|,,GYN
681583,10/08/2019 15:45:26,1570560323.92,,51127,,1,-16.6934334865,-49.2355694622,|Rua 24 Q A14, 590, Goiania|,-16.6853934259,-49.2797779664,|Avenida Castelo Branco, 0002000, Goiania|,,GYN
681582,10/08/2019 15:45:15,1570560314.25,,1684,,1,-16.7129796832,-49.2611765116,|Edificio Dom Jerson - Rua S-4 - Setor Bela Vista, Goiania - GO|,-16.6947459,-49.256162,|Rua 131, n 154 - Setor Sul|,,GYN
681580,10/08/2019 15:44:57,1570560294.63,,37588,,1,-16.7354395856,-49.2736943811,|Reserva do Amazonia - Parque Amazonia, Goiania - GO|,-16.6933002108,-49.2369538173,|Rua 29 6, Goias|,,GYN
681579,10/08/2019 15:44:51,1570560288.87,,16489,,1,-16.674935542,-49.2632994801,|Rua 4, Goiania|,-16.6651644418,-49.2460957915,|Praca Vereador Boaventura Moreira de Andrade, 150 - Setor Leste Vila Nova|,,GYN
681578,10/08/2019 15:44:50,1570560287.67,,44807,,3,-16.6818018647,-49.2411095649,|Restaurante Tempero Nativo - Quinta Avenida - Setor Leste Universitario, Goiania - GO|,-16.7253999,-49.2824973,|Rua Gaponga, 222 - Parque Amazonia|,,GYN
681575,10/08/2019 15:44:23,1570560261.69,,54761,None,2,-16.6763647749,-49.2609994859,|Avenida Tocantins 498, Goias|,-16.7306079823,-49.2813333124,|Avenida Dona Terezinha de Morais 868, Goias|,,GYN
681574,10/08/2019 15:44:20,1570560258.66,,44393,,1,-16.6919430418,-49.2722630873,|Avenida D 1064, Goias|,-16.6865345024,-49.2770062387,|Avenida Assis Chateaubriand 1964, Goias|,,GYN
681573,10/08/2019 15:44:16,1570560243.29,,50335,,1,-16.6986395143,-49.2549242824,|Alameda Ricardo Paranhos, 25, Goiania|,-16.7189420196,-49.284263961,|Rua C 167 Q 379, 1034, Goiania|,,GYN
681572,10/08/2019 15:44:02,1570560240.6,,10712,,1,-16.7052468,-49.2406589538,|Avenida E 18, Goias|,-16.6884402424,-49.2341079935,|Enel Distribuicao Goias - Jardim Goias, Goiania - GO|,,GYN
681571,10/08/2019 15:43:57,1570560235.51,,45558,,1,-16.6861545725,-49.2649614438,|Avenida Republica do Libano 2165, Goias|,-16.7136649375,-49.2520791292,|Terminal Isidoria - Setor Pedro Ludovico, Goiania - GO|,,GYN
681570,10/08/2019 15:43:52,1570560230.23,,48729,,1,-16.6600336275,-49.2557728663,|Rua Jose Sinimbu Filho 158, Goias|,-16.7249510492,-49.285213463,|Rua Acai Q 213 131, Goias|,,GYN
681569,10/08/2019 15:43:42,1570560220.69,,33,None,1,-16.691359,-49.264922,,-16.70058,-49.275962,,,GYN
681568,10/08/2019 15:43:30,1570560208.01,,54765,None,1,-16.7141973405,-49.2907183617,|Rua C-159, Goiania - GO|,-16.6593481,-49.2597333,|Terminal Rodoviario Goiania - Rua 44 - Setor Central, Goiania - GO|,,GYN
681567,10/08/2019 15:43:22,1570560199.97,,50335,,1,-16.6986395143,-49.2549242824,|Alameda Ricardo Paranhos, 25, Goiania|,-16.7189420196,-49.284263961,|Rua C-167, 1056 - Jardim America|,,GYN
681566,10/08/2019 15:43:17,1570560195.21,,45558,,1,-16.6861545725,-49.2649614438,|Avenida Republica do Libano 2165, Goias|,-16.7136649375,-49.2520791292,|Terminal Isidoria - Setor Pedro Ludovico, Goiania - GO|,,GYN
681565,10/08/2019 15:42:56,1570560175.49,,45558,,1,-16.6861545725,-49.2649614438,|Avenida Republica do Libano 2165, Goias|,-16.6877385186,-49.271659255,|Rua 17 Q K7 66, Goias|,,GYN
681564,10/08/2019 15:42:41,1570560159.36,,25161,,1,-16.7088125519,-49.287969768,|Avenida T 9 Q 260 0, Goias|,-16.6988787614,-49.2736450955,|Rua T 51 Q T22 0, Goias|,,GYN
681562,10/08/2019 15:42:10,1570560129.39,,44064,,1,-16.6988678428,-49.2589988932,|Rua 1136, 125 - Setor Marista|,-16.6904143686,-49.2785796896,|Rua T-47, 565 - Setor Bueno|,,GYN
681560,10/08/2019 15:41:59,1570560117.44,,44701,,1,-16.6894878453,-49.263712205,|Avenida Republica do Libano 155, Goias|,-16.7162556518,-49.263776578,|Avenida 85 410, Goias|,,GYN
681559,10/08/2019 15:41:49,1570560107.46,,52246,,1,-16.6805101323,-49.2664597929,|Rua 2 Q D2 0, Goias|,-16.6620732502,-49.2416533828,|Rua 216 Q 54 215, Goias|,,GYN
681558,10/08/2019 15:41:39,1570560097.18,,44393,,1,-16.6919430418,-49.2722630873,|Avenida D 1064, Goias|,-16.6865345024,-49.2770062387,|Avenida Assis Chateaubriand 1964, Goias|,,GYN
681555,10/08/2019 15:41:25,1570560082.53,,44701,,1,-16.6894878453,-49.263712205,|Avenida Republica do Libano 155, Goias|,-16.7146722633,-49.2628515512,|Rua S-2 229, Goias|,,GYN
681554,10/08/2019 15:41:13,1570560070.98,,5525,,1,-16.707786249,-49.2659340799,|Colegio Dinamico - Rua T-37 - Setor Bueno, Goiania - GO|,-16.7401336496,-49.2863356322,|Rua Alaor Mendonca - Vila Rosa, Goiania - GO|,,GYN
681553,10/08/2019 15:40:59,1570560058.52,,10712,,1,-16.7052468,-49.2406589538,|Avenida E 18, Goias|,-16.6884402424,-49.2341079935,|Enel Distribuicao Goias - Jardim Goias, Goiania - GO|,,GYN
681552,10/08/2019 15:40:41,1570560039.17,,37494,,1,-16.6891782539,-49.2655679584,|Rua Joao de Abreu 125, Goias|,-16.6716636826,-49.2360090092,|Terminal Praca da Biblia - Avenida Anhanguera - Setor Leste Universitario, Goiania - GO|,,GYN
681551,10/08/2019 15:40:14,1570560012.65,,18835,,1,-16.6821914381,-49.269717671,|Alameda das Rosas, 00G2000, Goiania|,-16.6794053119,-49.257177338,|Praca Doutor Pedro L Teixeira Q 1, 300, Goiania|,,GYN
681547,10/08/2019 15:40:02,1570560000.66,,25727,,1,-16.6636551474,-49.2508751526,|Rua 200 Q 67b 1007, Goias|,-16.675820383,-49.2389852554,|Teatro Basileu Franca - Avenida Universitaria - Setor Leste Universitario, Goiania - GO|,,GYN
681546,10/08/2019 15:40:02,1570559999.79,,44935,,1,-16.680477052,-49.2549370229,|Praca Doutor Pedro Ludovico Teixeira 0 332, Goias|,-16.7276064701,-49.2843216285,|Rua Tocari 246, Goias|,,GYN
681543,10/08/2019 15:39:58,1570559996.18,,4926,,1,-16.6819611627,-49.2575749755,|Rua 82 32122, Goias|,-16.7137709044,-49.2508158088,|Avenida Circular 614, Goias|,,GYN
681537,10/08/2019 15:39:29,1570559967.51,,49465,,1,-16.7094445154,-49.2916286364,|Avenida T9, 0256000, Goiania|,-16.6588371458,-49.2601562664,|Rodoviaria de Goiania - Rua 44 - Setor Central, Goiania - GO|,,GYN
681535,10/08/2019 15:39:15,1570559954.0,,10712,,1,-16.7052468,-49.2406589538,|Avenida E 18, Goias|,-16.6884402424,-49.2341079935,|Enel Distribuicao Goias - Jardim Goias, Goiania - GO|,,GYN
681534,10/08/2019 15:38:58,1570559937.25,,46070,,1,-16.6737821915,-49.2651139945,|Rua 1-A, 335 - Setor Aeroporto|,-16.6932673,-49.2499449,|Escola Enfant unidade 2 - Rua 118 - Setor Sul, Goiania - GO|,,GYN
681529,10/08/2019 15:38:02,1570559880.62,,25727,,1,-16.6636551474,-49.2508751526,|Rua 200 Q 67b 1007, Goias|,-16.675820383,-49.2389852554,|Teatro Basileu Franca - Avenida Universitaria - Setor Leste Universitario, Goiania - GO|,,GYN
681527,10/08/2019 15:37:49,1570559868.05,,29989,,1,-16.676256539,-49.2440271378,|Praca Universitaria, 0062000, Goiania|,-16.7371409564,-49.2677955329,|Avenida Rio Verde, 0006000, Goiania|,,GYN
681525,10/08/2019 15:37:42,1570559860.17,,33,None,1,-16.691359,-49.264922,,-16.70058,-49.275962,,,GYN
681522,10/08/2019 15:37:29,1570559847.81,,50115,,1,-16.7340342336,-49.2810241878,|Rua Curitiba, 16, Goiania|,-16.7210144081,-49.2593056709,|Avenida 4a Radial Q 5, 1111, Goiania|,,GYN
681520,10/08/2019 15:37:11,1570559829.02,,29989,,1,-16.676256539,-49.2440271378,|Praca Universitaria, 0062000, Goiania|,-16.7371409564,-49.2677955329,|Avenida Rio Verde, 0006000, Goiania|,,GYN
681518,10/08/2019 15:37:09,1570559826.6,,35791,,1,-16.6915027467,-49.2772177979,|Avenida T-7 599, Goias|,-16.6923977877,-49.2363660783,|Avenida Fued Jose Sebba 1184, Goias|,,GYN
681517,10/08/2019 15:37:08,1570559825.52,,47664,,1,-16.7204553727,-49.2758606002,|Rua C-184 459, Goias|,-16.6793995309,-49.2435875908,|Rua 240 Q Area 0, Goias|,,GYN
681514,10/08/2019 15:36:41,1570559799.37,,47664,,1,-16.7204553727,-49.2758606002,|Rua C-184 459, Goias|,-16.7231532409,-49.2807398736,|Alameda Imbe 409, Goias|,,GYN
681510,10/08/2019 15:36:15,1570559773.47,,17335,,1,-16.7126104027,-49.2584916204,|Alameda Couto Magalhaes 754, Goias|,-16.6713331854,-49.2668570951,|Fertile Diagnostico - Rua 13-A - Setor Aeroporto, Goiania - GO|,,GYN
681509,10/08/2019 15:36:05,1570559762.25,,47664,,1,-16.7204553727,-49.2758606002,|Rua C-184 459, Goias|,-16.7231532409,-49.2807398736,|Alameda Imbe 409, Goias|,,GYN
681508,10/08/2019 15:35:43,1570559741.54,,31321,,1,-16.7038508593,-49.2491739616,|Rua 1001 299, Goias|,-16.7141931661,-49.2554087564,|Caixa Economica Federal - Ag Pedro Ludovico - Setor Pedro Ludovico, Goiania - GO|,,GYN
681507,10/08/2019 15:35:42,1570559741.01,,24053,,1,-16.6705456426,-49.2687054724,|Praca Stos Dumont Q 55a, 46, Goiania|,-16.6691455942,-49.2741054296,|Avenida Independencia, Goiania|,,GYN
681506,10/08/2019 15:35:39,1570559737.73,,17335,,1,-16.7126104027,-49.2584916204,|Alameda Couto Magalhaes 754, Goias|,-16.6713331854,-49.2668570951,|Fertile Diagnostico - Rua 13-A - Setor Aeroporto, Goiania - GO|,,GYN
681505,10/08/2019 15:35:35,1570559733.81,,48308,,1,-16.7054857177,-49.2714145035,|Rua T 30 Q Area 0, Goias|,-16.691436911,-49.2644883692,|Av. D, 219 - Setor Marista|,,GYN
681504,10/08/2019 15:35:33,1570559731.66,,25640,,1,-16.7105417764,-49.2363456264,|Jardim Goias Alameda das Paineiras 102, Goias|,-16.6685966851,-49.2673264816,|Edificio Brooklin - Rua 59-A - Setor Aeroporto, Goiania - GO|,,GYN
