Id,Last Update,Request,Ride Id,Rider Id,Rider Status,# pax,Origin Lat,Origin Lng,Origin Address,Destination Lat,Destination Lng,Destination Address,Err Statement,City
644844,10/02/2019 12:10:49,1570029045.37,,50826,,1,-16.6942559398,-49.2349626124,|Rua 31, 17, Goiania|,-16.7042545175,-49.2710175365,|America Psicologia - Setor Bueno, Goiania - GO|,,GYN
644843,10/02/2019 12:10:40,1570029037.09,,16068,,1,-16.689609241,-49.267574586,|Farmacia Reativa - Rua Joao de Abreu - Setor Oeste, Goiania - GO|,-16.6928107833,-49.2768506706,|Oasis Bueno Residencial - Rua T-48 - Setor Bueno, Goiania - GO|,,GYN
644842,10/02/2019 12:10:28,1570029025.77,,43206,None,1,-16.7025255573,-49.2324691638,|Forum Criminal Desembargador Fenelon Teodoro Reis - Rua 72 - Jardim Goias, Goiania - GO|,-16.7143583,-49.2613359,|Rua S-4, 224 - Setor Bela Vista|,,GYN
644841,10/02/2019 12:10:27,1570029024.1,,47680,,1,-16.6706583783,-49.2533682659,|Avenida Paranaiba, 0100000, Goiania|,-16.6892842344,-49.2560615391,|Condominio Viella's - Rua 104-E - Setor Sul, Goiania - GO|,,GYN
644840,10/02/2019 12:10:07,1570029004.19,,6251,,1,-16.6702347357,-49.2531600595,|Avenida Paranaiba 370, Goias|,-16.691636987,-49.273448959,|Colegio Estadual Da Policia Militar De Goias - Unidade Polivalente Modelo Vasco Dos Reis - Rua T-48 - Setor Oeste, Goiania - GO|,,GYN
644839,10/02/2019 12:10:02,1570028998.42,,35838,,1,-16.7190800939,-49.2659035698,|Cora Alto Do Bueno - Avenida T-13 - Setor Bueno, Goiania - GO|,-16.6797351529,-49.2610856518,|Assembleia Legislativa do Estado de Goias - Alameda dos Buritis - Setor Oeste, Goiania - GO|,,GYN
644837,10/02/2019 12:09:36,1570028973.87,,4379,,2,-16.736449686,-49.2666099966,|Avenida Rio Verde 900, Goias|,-16.7108208271,-49.2944674194,|Rua C-162 212, Goias|,,GYN
644836,10/02/2019 12:09:27,1570028964.06,,52200,,1,-16.7202017031,-49.260875769,|Ed. Barao de Melgaco - Av. T-14 - Setor Bela Vista, Goiania - GO|,-16.676556,-49.2625159,|Tecidos Tita Ltda - Avenida Anhanguera - Setor Central, Goiania - GO|,,GYN
644835,10/02/2019 12:09:11,1570028949.3,,46846,,1,-16.6995666354,-49.2725111917,|Avenida T-1 1403, Goias|,-16.7020534944,-49.2799378932,|Avenida C 198 Q 500 0, Goias|,,GYN
644834,10/02/2019 12:09:06,1570028943.38,,43206,None,1,-16.7025255573,-49.2324691638,|Forum Criminal Desembargador Fenelon Teodoro Reis - Rua 72 - Jardim Goias, Goiania - GO|,-16.7143583,-49.2613359,|Rua S-4, 224 - Setor Bela Vista|,,GYN
644833,10/02/2019 12:09:04,1570028942.05,,27458,,5,-16.692790551,-49.2481285706,|Rua 88, 602, Goiania|,-16.7101917582,-49.2372512072,|Flamboyant Shopping Center - Avenida Deputado Jamel Cecilio - Jardim Goias, Goiania - GO|,,GYN
644832,10/02/2019 12:08:49,1570028925.89,,52805,,1,-16.6843673183,-49.258267656,|Avenida 85 225, Goias|,-16.6648541686,-49.2481651157,|Avenida Vereador Germino Alves 119, Goias|,,GYN
644830,10/02/2019 12:08:18,1570028895.09,,13277,,1,-16.6745938092,-49.272364676,|Senac Setor Aeroporto - Rua 31-A - Setor Aeroporto, Goiania - GO|,-16.7100665222,-49.2949575931,|Avenida T9, 0252000, Goiania|,,GYN
644829,10/02/2019 12:08:14,1570028892.15,,43206,None,1,-16.7025255573,-49.2324691638,|Forum Criminal Desembargador Fenelon Teodoro Reis - Rua 72 - Jardim Goias, Goiania - GO|,-16.7143583,-49.2613359,|Rua S-4, 224 - Setor Bela Vista|,,GYN
644828,10/02/2019 12:08:06,1570028883.6,,16068,,1,-16.6894990857,-49.2655465007,|Correios - Praca do Sol - Rua Joao de Abreu - Setor Oeste, Goiania - GO|,-16.6928107833,-49.2768506706,|Oasis Bueno Residencial - Rua T-48 - Setor Bueno, Goiania - GO|,,GYN
644827,10/02/2019 12:08:00,1570028876.83,,27458,,5,-16.692790551,-49.2481285706,|Rua 88, 602, Goiania|,-16.7101917582,-49.2372512072,|Flamboyant Shopping Center - Avenida Deputado Jamel Cecilio - Jardim Goias, Goiania - GO|,,GYN
644826,10/02/2019 12:07:58,1570028875.79,,37216,,1,-16.6891130598,-49.2660403624,|Rua Joao de Abreu, 00F8000, Goiania|,-16.6818506818,-49.2546584085,|Rua 82 Q F15, 201, Goiania|,,GYN
644825,10/02/2019 12:07:56,1570028873.61,,30208,,1,-16.6662979304,-49.266054444,|Avenida Oeste Q 132 826, Goias|,-16.6672801319,-49.2554587126,|Rua 55 Q 104 63, Goias|,,GYN
644824,10/02/2019 12:07:49,1570028866.21,,33,None,1,-16.691359,-49.264922,,-16.70058,-49.275962,,,GYN
644821,10/02/2019 12:07:17,1570028834.16,,30208,,1,-16.6662979304,-49.266054444,|Avenida Oeste Q 132 826, Goias|,-16.6672801319,-49.2554587126,|Rua 55 Q 104 63, Goias|,,GYN
644820,10/02/2019 12:07:10,1570028827.12,,33600,None,1,-16.7143553271,-49.2811918259,|Praca C113 Q 344, 61, Goiania|,-16.7129552786,-49.2865917832,|Rua C-145, 16, Goiania|,,GYN
644819,10/02/2019 12:06:46,1570028803.73,,21066,,1,-16.6963732349,-49.2663471401,|Rua 9 300, Goias|,-16.6590504252,-49.261299558,|Avenida Goias 2940, Goias|,,GYN
644818,10/02/2019 12:06:41,1570028799.19,,52361,,1,-16.718028479,-49.2420359328,|Alameda Emilio Povoa, Goiania|,-16.7020473929,-49.2614329979,|Melo Clinic Estetica - Saude - Sono - Rua 1130 - Setor Marista, Goiania - GO|,,GYN
644817,10/02/2019 12:06:30,1570028787.85,,26341,None,3,-16.7198215191,-49.2678156495,|Avenida T-14 962, Goias|,-16.6593745196,-49.2583256587,|Rua 44 411, Goias|,,GYN
644816,10/02/2019 12:06:20,1570028777.61,,27458,,5,-16.6927109065,-49.2480283231,|Rua 88, 0035000, Goiania|,-16.7101917582,-49.2372512072,|Flamboyant Shopping Center - Avenida Deputado Jamel Cecilio - Jardim Goias, Goiania - GO|,,GYN
644815,10/02/2019 12:06:02,1570028758.43,,16068,,1,-16.6894990857,-49.2655465007,|Correios - Praca do Sol - Rua Joao de Abreu - Setor Oeste, Goiania - GO|,-16.6928107833,-49.2768506706,|Oasis Bueno Residencial - Rua T-48 - Setor Bueno, Goiania - GO|,,GYN
644812,10/02/2019 12:05:48,1570028744.82,,53830,None,2,-16.7046703776,-49.2410388216,|Avenida Deputado Jamel Cecilio, 2699, Goiania|,-16.7076475243,-49.2818368971,|Avenida T9, Goiania|,,GYN
644811,10/02/2019 12:05:47,1570028744.09,,53828,None,1,-16.6901304708,-49.2392062023,|Avenida Fued Jose Sebba Q A12 908, Goias|,-16.7094758,-49.2660304,|Rua T-37 - Setor Bueno, Goiania - GO|,,GYN
644810,10/02/2019 12:05:40,1570028736.64,,15677,,1,-16.678410647,-49.2446276173,|1a Avenida 615, Goias|,-16.71558582,-49.2603748664,|Rua S-5 - Setor Bela Vista, Goiania - GO|,,GYN
644808,10/02/2019 12:05:40,1570028736.14,,4980,,1,-16.7069535781,-49.2683819309,|Rua T-038, 75, Goiania|,-16.6766310286,-49.2484242842,|Rua 237 Q 107a, 26, Goiania|,,GYN
644805,10/02/2019 12:04:58,1570028695.43,,25938,,1,-16.678489334,-49.2448552698,|1a Avenida 613, Goias|,-16.6996869,-49.251064,|Marista Engenharia - Rua 122 - Setor Sul, Goiania - GO|,,GYN
644802,10/02/2019 12:04:50,1570028687.11,,29988,,1,-16.667314178,-49.2552471533,|Avenida Paranaiba 41, Goias|,-16.7160071143,-49.2682129517,|Rua T-38 1053, Goias|,,GYN
644801,10/02/2019 12:04:49,1570028686.6,,16068,,1,-16.689132329,-49.2635948583,|Cristal Festas - Rua 134 - Setor Oeste, Goiania - GO|,-16.6928107833,-49.2768506706,|Oasis Bueno Residencial - Rua T-48 - Setor Bueno, Goiania - GO|,,GYN
644799,10/02/2019 12:04:33,1570028670.94,,52941,,1,-16.6745938092,-49.272364676,|Senac Setor Aeroporto - Rua 31-A - Setor Aeroporto, Goiania - GO|,-16.676886,-49.2392115,|Pontal das Estrelas - Rua 259 - Setor Leste Universitario, Goiania - GO|,,GYN
644798,10/02/2019 12:04:36,1570028664.57,,23604,,1,-16.6924761477,-49.2707426101,|Extra Hiper - Avenida Portugal - Setor Marista, Goiania - GO|,-16.7099191289,-49.2504691333,|Colegio Adventista Setor Pedro Ludovico - Rua 1016 - Setor Pedro Ludovico, Goiania - GO|,,GYN
644797,10/02/2019 12:04:21,1570028657.46,,44255,,1,-16.6770418101,-49.2461135611,|PUC Goias Area 4 - Praca Universitaria - Setor Leste Universitario, Goiania - GO|,-16.7177616408,-49.2696915194,|America Wings - Rua T-65 - Setor Bueno, Goiania - GO|,,GYN
644796,10/02/2019 12:04:21,1570028657.28,,43351,,1,-16.7022410352,-49.2415588349,|Avenida E 586, Goias|,-16.7108079824,-49.2769277841,|Rua C-233 - Jardim America, Goiania - GO|,,GYN
644795,10/02/2019 12:04:10,1570028648.35,,1089,,1,-16.6797007878,-49.2359198257,|Rua 250 - Setor Leste Universitario, Goiania - GO|,-16.6804247016,-49.2746707052,|Alameda Das Rosas Q R7 1931, Goias|,,GYN
644794,10/02/2019 12:04:09,1570028646.45,,16068,,1,-16.689132329,-49.2635948583,|Cristal Festas - Rua 134 - Setor Oeste, Goiania - GO|,-16.6928107833,-49.2768506706,|Oasis Bueno Residencial - Rua T-48 - Setor Bueno, Goiania - GO|,,GYN
644793,10/02/2019 12:04:06,1570028644.26,,44732,,1,-16.7191786725,-49.2600734532,|Rua S-5 998, Goias|,-16.7468952101,-49.2859433591,|Avenida Rio Verde 2580, Goias|,,GYN
644792,10/02/2019 12:04:06,1570028644.22,,34887,,1,-16.6757529361,-49.2420389503,|Casa do Estudante III - Praca Universitaria - Setor Leste Universitario, Goiania - GO|,-16.675304253,-49.2624052987,|IBGE - Ag. Goiania - Avenida Tocantins - Setor Central, Goiania - GO|,,GYN
644788,10/02/2019 12:03:45,1570028622.26,,25938,,1,-16.6782998429,-49.2449826747,|Praca Universitaria 824, Goias|,-16.6996869,-49.251064,|Marista Engenharia - Rua 122 - Setor Sul, Goiania - GO|,,GYN
644787,10/02/2019 12:03:46,1570028621.48,,42195,,1,-16.7043415431,-49.2728934065,|Escola Educandario Goias - Rua T-30 - Setor Bueno, Goiania - GO|,-16.6924241218,-49.2371398956,|PUC Goias - Campus V - Avenida Fued Jose Sebba - Jardim Goias, Goiania - GO|,,GYN
644786,10/02/2019 12:03:38,1570028615.41,,53828,None,1,-16.6901304708,-49.2392062023,|Avenida Fued Jose Sebba Q A12 908, Goias|,-16.6928284464,-49.2440848053,|Rua 115 580, Goias|,,GYN
644785,10/02/2019 12:03:23,1570028599.77,,44255,,1,-16.6770418101,-49.2461135611,|PUC Goias Area 4 - Praca Universitaria - Setor Leste Universitario, Goiania - GO|,-16.7177616408,-49.2696915194,|America Wings - Rua T-65 - Setor Bueno, Goiania - GO|,,GYN
644784,10/02/2019 12:03:21,1570028598.19,,2313,,1,-16.7035178488,-49.2658881471,|Rua T-27 2125, Goias|,-16.696498801,-49.2424577102,|Rua 6 Q B4 80, Goias|,,GYN
644783,10/02/2019 12:03:20,1570028597.88,,18396,,1,-16.6910987404,-49.282675758,|Faculdades Objetivo - Campus T2 - R. T. 44 Quadra 21 lote 10 - Setor Bueno, Goiania - GO|,-16.6712933587,-49.240216054,|Rua 225, 140 - Setor Leste Universitario|,,GYN
644782,10/02/2019 12:03:16,1570028593.82,,30716,,1,-16.6776051477,-49.2358095199,|Rua 261-B 500, Goias|,-16.7136758553,-49.26716052,|Avenida T-4 800, Goias|,,GYN
644781,10/02/2019 12:02:56,1570028573.66,,53828,None,1,-16.6901304708,-49.2392062023,|Avenida Fued Jose Sebba Q A12 908, Goias|,-16.6928284464,-49.2440848053,|Rua 115 580, Goias|,,GYN
644780,10/02/2019 12:02:51,1570028568.42,,42195,,1,-16.7043415431,-49.2728934065,|Escola Educandario Goias - Rua T-30 - Setor Bueno, Goiania - GO|,-16.7101917582,-49.2372512072,|Shopping Flamboyant - Avenida Deputado Jamel Cecilio - Jardim Goias, Goiania - GO|,,GYN
644779,10/02/2019 12:02:37,1570028554.35,,4158,,1,-16.6973912495,-49.2431198806,|Rua 58 Q B6, 321, Goiania|,-16.6755377482,-49.2668111622,|Rua 3 - A, 210, Goiania|,,GYN
644778,10/02/2019 12:02:01,1570028518.36,,27458,,5,-16.6927109065,-49.2480283231,|Rua 88, 0035000, Goiania|,-16.7101917582,-49.2372512072,|Flamboyant Shopping Center - Avenida Deputado Jamel Cecilio - Jardim Goias, Goiania - GO|,,GYN
644777,10/02/2019 12:02:00,1570028517.39,,42195,,1,-16.7043415431,-49.2728934065,|Escola Educandario Goias - Rua T-30 - Setor Bueno, Goiania - GO|,-16.7077062897,-49.2328815535,|Walmart Goiania - Avenida Deputado Jamel Cecilio - Jardim Goias, Goiania - GO|,,GYN
644776,10/02/2019 12:01:46,1570028504.11,,45963,,1,-16.6956105232,-49.2695325986,|Rua T-51 10a, Goias|,-16.7182738028,-49.2373769358,|Rua Recife 212, Goias|,,GYN
644775,10/02/2019 12:01:44,1570028501.81,,40887,,4,-16.6947386196,-49.2701773345,|Avenida Portugal 990, Goias|,-16.7096057172,-49.2317781597,|BR-153 70, Goias|,,GYN
644774,10/02/2019 12:01:42,1570028499.7,,33,None,1,-16.691359,-49.264922,,-16.70058,-49.275962,,,GYN
644773,10/02/2019 12:01:42,1570028499.57,,47805,None,1,-16.680436906,-49.2459358647,|Rua 239, 585, Goiania|,-16.7101917582,-49.2372512072,|Flamboyant Shopping, Alameda das Paineiras, Goiania|,,GYN
644771,10/02/2019 12:01:22,1570028479.33,,29046,,1,-16.7111753397,-49.2430598661,|Avenida Jorge Martins, 13, Goiania|,-16.6743725177,-49.2478948832,|Rua 230, 200, Goiania|,,GYN
644768,10/02/2019 12:01:09,1570028466.62,,51224,,1,-16.693472024,-49.2731140181,|Avenida Mutirao, 0051000, Goiania|,-16.6793590635,-49.257206507,|Praca Doutor Pedro L Teixeira Q 1, 300, Goiania|,,GYN
644767,10/02/2019 12:01:05,1570028462.63,,40887,,1,-16.6947386196,-49.2701773345,|Avenida Portugal 990, Goias|,-16.7101683166,-49.2312504351,|BR-153 70, Goias|,,GYN
644766,10/02/2019 12:00:58,1570028455.74,,4862,,1,-16.6733087729,-49.2411964014,|Secretaria Municipal de Educacao e Esporte - Rua 226 - Setor Leste Universitario, Goiania - GO|,-16.7147657064,-49.2710540816,|Condominio Residencial Principe de Gales - Rua C-235 - Setor Nova Suica, Goiania - GO|,,GYN
644764,10/02/2019 12:00:53,1570028450.22,,27759,,1,-16.7033200331,-49.2615067586,|Rua 1130 Q 228 335, Goias|,-16.7166368062,-49.2693290859,|Avenida T-5 1126, Goias|,,GYN
644762,10/02/2019 12:00:46,1570028444.14,,47805,None,1,-16.680436906,-49.2459358647,|Rua 239, 585, Goiania|,-16.7101917582,-49.2372512072,|Flamboyant Shopping Center - Avenida Deputado Jamel Cecilio - Jardim Goias, Goiania - GO|,,GYN
644760,10/02/2019 12:00:44,1570028441.94,,43607,,1,-16.7198613357,-49.2653131485,|Rua T-37, numero 4029 - Setor Bueno|,-16.6754118471,-49.2397299036,|Sesc Universitario - Avenida Universitaria - Setor Leste Universitario, Goiania - GO|,,GYN
644758,10/02/2019 12:00:42,1570028439.94,,24813,,1,-16.6737468618,-49.2571374401,|Banca Parthenon - Rua 4 - Setor Central, Goiania - State of Goias|,-16.7177436589,-49.26269833,|Rua S 2, 23, Goiania|,,GYN
644754,10/02/2019 12:00:30,1570028427.77,,39707,,1,-16.6719254462,-49.266683422,|Rua 16 A Q 28a 50, Goias|,-16.7122308458,-49.2859534174,|Rua C-146, n 358 - Jardim America|,,GYN
644753,10/02/2019 12:00:27,1570028425.19,,47805,None,1,-16.680436906,-49.2459358647,|Rua 239, 585, Goiania|,-16.67903693,-49.251335822,|Rua 10, Goiania|,,GYN
644752,10/02/2019 12:00:28,1570028424.96,,4158,,1,-16.6971751226,-49.2433230579,|Avenida E, Goiania|,-16.6748276265,-49.266949296,|Avenida Doutor Ismerino S Carvalho Q5a, 171, Goiania|,,GYN
644749,10/02/2019 12:00:14,1570028412.03,,53150,,2,-16.6971722323,-49.2695275694,|Allergoclinic - Alergia e Imunologia - Avenida Portugal - Setor Marista, Goiania - GO|,-16.6785583858,-49.2340888828,|Rua 262, 87 - Setor Leste Universitario|,,GYN
644748,10/02/2019 11:59:58,1570028395.68,,51152,,1,-16.6797541018,-49.2620804161,|Bosque Dos Buritis, Rua 29 Qda 0, 231, Goiania|,-16.7044048053,-49.2413368821,|Rua 65, 15, Goiania|,,GYN
644746,10/02/2019 12:00:12,1570028392.77,,39707,,1,-16.6719254462,-49.266683422,|Rua 16 A Q 28a 50, Goias|,-16.7122308458,-49.2859534174,|Rua C-146, n 358 - Jardim America|,FlexRequestAssignmentFailure,GYN
644743,10/02/2019 11:59:41,1570028379.34,,53335,,1,-16.6920846683,-49.27256383,|Rua Rui Brasil Cavalcante 746, Goias|,-16.7100096843,-49.2949797213,|Avenida T-9 3656, Goias|,,GYN
644728,10/02/2019 11:58:46,1570028325.11,,51152,,1,-16.6797541018,-49.2620804161,|Bosque Dos Buritis, Rua 29 Qda 0, 231, Goiania|,-16.7137217743,-49.2420969531,|Rua Dona Gercina Teixeira Q 10, 291, Goiania|,,GYN
644727,10/02/2019 11:58:45,1570028323.56,,43206,None,1,-16.7056488496,-49.2328476906,|Rua 14 295, Goias|,-16.7143583,-49.2613359,|Rua S-4, 224 - Setor Bela Vista|,,GYN
644726,10/02/2019 11:58:45,1570028323.25,,52805,,1,-16.6849193937,-49.2564927042,|Rua 94 846, Goias|,-16.6648541686,-49.2481651157,|Avenida Vereador Germino Alves 119, Goias|,,GYN
644725,10/02/2019 11:58:43,1570028321.72,,7634,,1,-16.6785069984,-49.2484360188,|Servico de Vigilancia Sanitaria e Ambiental de Goiania - Avenida Universitaria - Setor Leste Universitario, Goiania - GO|,-16.7075556834,-49.2548904195,|IPASGO - Avenida 1a Radial - Setor Pedro Ludovico, Goiania - GO|,,GYN
644724,10/02/2019 11:59:02,1570028319.74,,24813,,1,-16.6737468618,-49.2571374401,|Banca Parthenon - Rua 4 - Setor Central, Goiania - State of Goias|,-16.7177436589,-49.26269833,|Rua S-2 - Setor Bela Vista, Goiania - State of Goias|,FlexRequestAssignmentFailure,GYN
644720,10/02/2019 11:58:27,1570028305.9,,165,,1,-16.7225360933,-49.2795013636,|Rua C-155, 1, Goiania|,-16.6958157331,-49.2657821998,|Shopping Bougainville, Rua 9, Goiania|,,GYN
644717,10/02/2019 11:58:10,1570028287.91,,52805,,1,-16.6849193937,-49.2564927042,|Rua 94 846, Goias|,-16.6648541686,-49.2481651157,|Avenida Vereador Germino Alves 119, Goias|,,GYN
644715,10/02/2019 11:58:07,1570028285.78,,24243,,1,-16.675911918,-49.2448096722,|1a Avenida 815, Goias|,-16.6805043512,-49.2679098621,|Rua 2 446, Goias|,,GYN
644712,10/02/2019 11:58:00,1570028278.68,,24243,,1,-16.675911918,-49.2448096722,|1a Avenida 815, Goias|,-16.6805043512,-49.2679098621,|Avenida Assis Chateaubriand 51, Goias|,,GYN
644707,10/02/2019 11:57:48,1570028266.5,,14652,,1,-16.6846904063,-49.2549095303,|Rua 94 696, Goias|,-16.7105141603,-49.2406462133,|Avenida do Comercio 25, Goias|,,GYN
644703,10/02/2019 11:57:38,1570028256.42,,48405,,1,-16.6646752634,-49.2632974684,|Avenida Independencia Q 129 680, Goias|,-16.7008669096,-49.2537360638,|Rua 135 540, Goias|,,GYN
644698,10/02/2019 11:57:26,1570028244.64,,7153,,1,-16.6972390294,-49.2558161169,|Condominio Nasa Business Style - Avenida 136 - Setor Sul, Goiania - GO|,-16.7192611959,-49.2627717555,|Picanha's Grill - Avenida T-13 - Setor Bela Vista, Goiania - GO|,,GYN
644692,10/02/2019 11:57:09,1570028227.7,,2035,,1,-16.6890539675,-49.2746881396,|Avenida T 7 Q R31 318, Goias|,-16.7031919024,-49.2751923949,|Rua T-33, 188 - Setor Bueno|,,GYN
644685,10/02/2019 11:56:57,1570028215.44,,51224,,1,-16.6934813373,-49.2730892077,|Avenida Mutirao, 0051000, Goiania|,-16.6793590635,-49.257206507,|Praca Doutor Pedro L Teixeira Q 1, 300, Goiania|,,GYN
644672,10/02/2019 11:56:25,1570028183.89,,43206,None,1,-16.7056488496,-49.2328476906,|Rua 14 295, Goias|,-16.7143583,-49.2613359,|Rua S-4, 224 - Setor Bela Vista|,,GYN
644657,10/02/2019 11:55:59,1570028158.33,,44255,,1,-16.6770418101,-49.2461135611,|PUC Goias Area 4 - Praca Universitaria - Setor Leste Universitario, Goiania - GO|,-16.7177616408,-49.2696915194,|America Wings - Rua T-65 - Setor Bueno, Goiania - GO|,,GYN
644582,10/02/2019 11:53:59,1570028037.2,,51224,,1,-16.6934540399,-49.2729675025,|Avenida Mutirao, Goiania|,-16.6793590635,-49.257206507,|Praca Doutor Pedro L Teixeira Q 1, 300, Goiania|,,GYN
644567,10/02/2019 11:53:06,1570027984.23,,10712,,1,-16.7052468,-49.2406589538,|Avenida E 18, Goias|,-16.7143729882,-49.2613099515,|Rua S-4 224, Goias|,,GYN
644564,10/02/2019 11:52:55,1570027974.13,,22001,,1,-16.7145996923,-49.2645386606,|Emporio T-36 - Rua T-36 - Setor Bueno, Goiania - GO|,-16.7134998859,-49.2362242565,|Rua Teresina Q 11 419, Goias|,,GYN
644549,10/02/2019 11:52:13,1570027932.04,,15096,,1,-16.6862335774,-49.2635194212,|Rua 5 Q C7 1011, Goias|,-16.66026,-49.2558928,|Mega Moda - Avenida Contorno - Setor Norte Ferroviario, Goiania - GO|,,GYN
644547,10/02/2019 11:52:08,1570027927.09,,14287,,1,-16.7172295688,-49.2698387057,|Avenida T-15 1597, Goias|,-16.7031382738,-49.2331122234,|Rua 72, 48 - Jardim Goias|,,GYN
644543,10/02/2019 11:52:05,1570027923.25,,49136,,1,-16.6762652107,-49.2574606463,|Bradesco - Avenida Goias - Setor Central, Goiania - GO|,-16.6890648868,-49.2700596526,|Edificio Portugal - Avenida Portugal - Setor Oeste, Goiania - GO|,,GYN
644526,10/02/2019 11:51:29,1570027886.88,,42358,,1,-16.6694202088,-49.2633209378,|Instituto Santo Tomas de Aquino - Rua 55 - Setor Central, Goiania - GO|,-16.6839465965,-49.2686608806,|Rua 6-A 54, Goias|,,GYN
644523,10/02/2019 11:51:21,1570027879.9,,14287,,1,-16.7172295688,-49.2698387057,|Avenida T-15 1597, Goias|,-16.7031382738,-49.2331122234,|Rua 72, 48 - Jardim Goias|,,GYN
644517,10/02/2019 11:51:06,1570027864.22,,13706,,2,-16.677328939,-49.2460398003,|Avenida Universitaria, Goiania|,-16.6957486144,-49.2779604346,|Rua T-049, 12, Goiania|,,GYN
644516,10/02/2019 11:51:00,1570027858.66,,50912,,1,-16.7120359292,-49.2831414565,|Edificio American Park - Rua C-136 - Jardim America, Goiania - GO|,-16.7152948952,-49.2612506077,|Rua S-4 332, Goias|,,GYN
644501,10/02/2019 11:50:17,1570027815.63,,5986,,1,-16.6710264552,-49.2542671412,|Englabor - Acessoria em Saude e Seguranca do Trabalho - Avenida Araguaia - Setor Central, Goiania - GO|,-16.6956372,-49.2633524,|Rua 144 - Setor Marista, Goiania - GO|,,GYN
644491,10/02/2019 11:49:49,1570027787.35,,33,None,1,-16.691359,-49.264922,,-16.70058,-49.275962,,,GYN
644488,10/02/2019 11:49:35,1570027773.72,,1684,,1,-16.7099191289,-49.2504691333,|Colegio Adventista Setor Pedro Ludovico - Rua 1016 - Setor Pedro Ludovico, Goiania - GO|,-16.7136762,-49.2613698,|Melotintas - Avenida T-63 - Setor Bela Vista, Goiania - GO|,,GYN
644481,10/02/2019 11:49:19,1570027757.94,,5986,,1,-16.6710264552,-49.2542671412,|Englabor - Acessoria em Saude e Seguranca do Trabalho - Avenida Araguaia - Setor Central, Goiania - GO|,-16.6956372,-49.2633524,|Rua 144 - Setor Marista, Goiania - GO|,,GYN
644475,10/02/2019 11:49:04,1570027742.58,,5272,,1,-16.6848975548,-49.2606129125,|Rua 10 148, Goias|,-16.6949297001,-49.2419226095,|CMEI JARDIM GOIAS - Jardim Goias, Goiania - State of Goias|,,GYN
644470,10/02/2019 11:48:56,1570027733.77,,33126,,1,-16.6899692526,-49.2598119378,|Rua 105 C, 72 - Setor Sul|,-16.6904105148,-49.2399461567,|Ministerio Publico do Estado de Goias - Jardim Goias, Goiania - GO|,,GYN
644466,10/02/2019 11:48:49,1570027727.9,,45349,,3,-16.6919745144,-49.2721232772,|Avenida D 1062, Goias|,-16.671385217,-49.2358772457,|Avenida Anhanguera Q 924 920, Goias|,,GYN
644460,10/02/2019 11:48:35,1570027714.4,,41216,,1,-16.7402017159,-49.2831186578,|Residencial Amazon - Rua Canuma - Parque Amazonia, Goiania - GO|,-16.6723906,-49.245072,|Faculdade de Nutricao - UFG - Setor Leste Universitario, Goiania - GO|,,GYN
644457,10/02/2019 11:48:25,1570027703.67,,33126,,1,-16.6899692526,-49.2598119378,|Rua 105 C, 72 - Setor Sul|,-16.6904105148,-49.2399461567,|Ministerio Publico do Estado de Goias - Jardim Goias, Goiania - GO|,,GYN
644449,10/02/2019 11:48:09,1570027687.71,,50912,,1,-16.7120359292,-49.2831414565,|Edificio American Park - Rua C-136 - Jardim America, Goiania - GO|,-16.7152948952,-49.2612506077,|Rua S-4 332, Goias|,,GYN
644440,10/02/2019 11:47:54,1570027672.79,,5986,,1,-16.6711369424,-49.2538125068,|Avenida Araguaia 876, Goias|,-16.6956372,-49.2633524,|Rua 144 - Setor Marista, Goiania - GO|,,GYN
644427,10/02/2019 11:47:24,1570027642.27,,53427,,1,-16.6920098407,-49.2721259594,|Avenida D 1064, Goias|,-16.6719569221,-49.2362785712,|Camelodromo Praca da Biblia - Avenida Anhanguera - Setor Leste Universitario, Goiania - GO|,,GYN
644426,10/02/2019 11:47:22,1570027641.02,,47856,None,1,-16.6705379342,-49.2551388592,Localizacao marcada para embarque,-16.7137134254,-49.2671467736,Toque aqui ou mova no mapa,,GYN
644423,10/02/2019 11:47:14,1570027633.02,,5986,,1,-16.6711369424,-49.2538125068,|Avenida Araguaia 876, Goias|,-16.6956372,-49.2633524,|Rua 144 - Setor Marista, Goiania - GO|,,GYN
644416,10/02/2019 11:47:01,1570027619.84,,53791,,1,-16.6811007589,-49.2589760944,|Rua Dona Gercina Borges Teixeira 5, Goias|,-16.7128017864,-49.2602789775,|Rua S-5 287, Goias|,,GYN
644398,10/02/2019 11:46:19,1570027577.78,,45349,,3,-16.6919745144,-49.2721232772,|Avenida D 1062, Goias|,-16.671385217,-49.2358772457,|Avenida Anhanguera Q 924 920, Goias|,,GYN
644393,10/02/2019 11:45:58,1570027556.61,,42195,,1,-16.7043415431,-49.2728934065,|Escola Educandario Goias - Rua T-30 - Setor Bueno, Goiania - GO|,-16.6926566326,-49.2358537763,|Avenida Fued Jose Sebba, Goiania|,,GYN
644387,10/02/2019 11:45:40,1570027539.65,,47659,,1,-16.734081432,-49.28407453,|Avenida Sao Luiz Qdarea 0 0, Goias|,-16.7090594932,-49.2799201235,|Avenida C-182 180, Goias|,,GYN
644368,10/02/2019 11:45:00,1570027498.21,,23118,,1,-16.6847992797,-49.2667340487,|Rua 7 Q F5, 730, Goiania|,-16.6668670811,-49.2570948601,|Praca Dona Maria Bem-Vinda de Jesus - Setor Central, Goiania - GO|,,GYN
644365,10/02/2019 11:44:47,1570027485.71,,25938,,1,-16.6782998429,-49.2449826747,|Praca Universitaria 824, Goias|,-16.6996869,-49.251064,|Marista Engenharia - Rua 122 - Setor Sul, Goiania - GO|,,GYN
644355,10/02/2019 11:44:22,1570027461.52,,53817,None,1,-16.680175154,-49.2712441832,|Rua 9 - B, 00H1000, Goiania|,-16.7133303385,-49.2667846754,|Edificio Villa Del Rey - Avenida T-4 - Setor Bueno, Goiania - GO|,,GYN
644348,10/02/2019 11:44:09,1570027447.9,,11319,,1,-16.6924099913,-49.2363238335,|Avenida Fued Jose Sebba, 0A13000, Goiania|,-16.7221780697,-49.2766595632,|Rua C-181, 5, Goiania|,,GYN
644343,10/02/2019 11:43:57,1570027435.41,,33126,,1,-16.6899692526,-49.2598119378,|Rua 105 C, 72 - Setor Sul|,-16.6904105148,-49.2399461567,|Ministerio Publico do Estado de Goias - Jardim Goias, Goiania - GO|,,GYN
644331,10/02/2019 11:43:21,1570027399.49,,35263,,1,-16.7168342869,-49.2621853575,|Rua S-3, 468 - Setor Bela Vista|,-16.683041881,-49.2579732835,|OdontoCompany - Setor Sul, Goiania - GO|,,GYN
644325,10/02/2019 11:43:08,1570027386.16,,36424,,1,-16.6588365034,-49.26015459,|Rodoviaria de Goiania - Rua 44 - Setor Central, Goiania - GO|,-16.6827648,-49.2649887,|Rua 5, Goiania - GO|,,GYN
644316,10/02/2019 11:42:29,1570027347.38,,26335,,1,-16.6700362433,-49.2485161498,|Irradiacao Espirita Crista - Rua 201 - Leste Vila Nova, Goiania - GO|,-16.6959268482,-49.2601814121,|Escola Ensino Vivo - Rua 147 - Setor Marista, Goiania - GO|,,GYN
644313,10/02/2019 11:42:19,1570027337.39,,45458,,1,-16.7103471792,-49.2870497704,|Rua C-145 387, Goias|,-16.7128957,-49.2666394,|Buena vista Office Design - Av. T-4 - Setor Bueno, Goiania - GO|,,GYN
644308,10/02/2019 11:41:53,1570027311.16,,49767,,1,-16.6770418101,-49.2461135611,|PUC Goias Area 4 - Praca Universitaria - Setor Leste Universitario, Goiania - GO|,-16.6929042371,-49.2764758319,|Rua T-048, 553, Goiania|,,GYN
644300,10/02/2019 11:41:16,1570027267.88,,5390,,1,-16.6950453118,-49.27064538,|Rua 27 230, Goias|,-16.6640669203,-49.2623167858,|Avenida Goias 1979, Goias|,,GYN
644298,10/02/2019 11:41:04,1570027263.6,,11586,,1,-16.6741782048,-49.2723244429,|Praca Maria Olinda, Goiania|,-16.7154268711,-49.2763330042,|Rua C-165, 9, Goiania|,,GYN
644294,10/02/2019 11:40:52,1570027250.3,,16068,,1,-16.6819197324,-49.2559153587,|Palacio Pedro Ludovico Teixeira - Rua 82 - Setor Central, Goiania - GO|,-16.6928107833,-49.2768506706,|Oasis Bueno Residencial - Rua T-48 - Setor Bueno, Goiania - GO|,,GYN
644289,10/02/2019 11:40:38,1570027236.6,,48462,,1,-16.6923207122,-49.235220775,|Rua 37 Q A25 545, Goias|,-16.699724313,-49.2724075913,|Avenida T-1 1403, Goias|,,GYN
644286,10/02/2019 11:40:34,1570027232.54,,12299,,1,-16.6923624614,-49.2362577841,|Avenida Fued Jose Sebba, 0A13000, Goiania|,-16.6976873398,-49.2645108327,|Avenida 85, 0G20000, Goiania|,,GYN
644270,10/02/2019 11:40:05,1570027204.1,,33126,,1,-16.6899692526,-49.2598119378,|Rua 105 C, 72 - Setor Sul|,-16.6904105148,-49.2399461567,|Ministerio Publico do Estado de Goias - Jardim Goias, Goiania - GO|,,GYN
644266,10/02/2019 11:39:56,1570027194.46,,11418,,1,-16.6828363363,-49.2622550949,|Rua 1 605, Goias|,-16.6756973727,-49.2548790202,|Banana Shopping - Avenida Araguaia - Centro, Goiania - GO|,,GYN
644250,10/02/2019 11:39:23,1570027161.83,,45458,,1,-16.7103019016,-49.287045747,|Rua C-145 387, Goias|,-16.7105077,-49.2677698,|Buena Vista Shopping - Avenida T-4 - Setor Bueno, Goiania - GO|,,GYN
644246,10/02/2019 11:39:19,1570027157.12,,39902,,1,-16.6972554075,-49.2557393387,|Avenida 136 761, Goias|,-16.6739440656,-49.2547717318,|Avenida Anhanguera 4674, Goias|,,GYN
644244,10/02/2019 11:39:18,1570027156.52,,11418,,1,-16.6828363363,-49.2622550949,|Rua 1 605, Goias|,-16.6756973727,-49.2548790202,|Banana Shopping - Avenida Araguaia - Centro, Goiania - GO|,,GYN
644242,10/02/2019 11:39:15,1570027153.62,,47899,,1,-16.6772614927,-49.2459418997,|Avenida Universitaria, Goiania|,-16.6906883103,-49.2380256951,|Building River Phoenix - Avenida Fued Jose Sebba - Jardim Goias, Goiania - GO|,,GYN
644233,10/02/2019 11:38:52,1570027130.76,,6741,,1,-16.7029590833,-49.2640246823,|Avenida 85, 28, Goiania|,-16.6723686772,-49.2542393133,|Piramidy's Restaurante Cervejaria & Pizzaria - Setor Central, Goiania - GO|,,GYN
644228,10/02/2019 11:38:38,1570027116.69,,12911,,2,-16.6800434749,-49.2692895234,|Rua 9 130, Goias|,-16.6757892289,-49.254671149,|Skybar, Banana Shopping - Rua 21 - Setor Central|,,GYN
644226,10/02/2019 11:38:28,1570027107.06,,6741,,1,-16.7041029451,-49.2639566213,|Rua 85 Qd 231 0, 2533, Goiania|,-16.6723686772,-49.2542393133,|Piramidy's Restaurante Cervejaria & Pizzaria - Setor Central, Goiania - GO|,,GYN
644225,10/02/2019 11:38:25,1570027103.85,,43458,,1,-16.6783159015,-49.2453179508,|Praca Universitaria 798, Goias|,-16.6790285796,-49.2660168931,|Rua 5 175, Goias|,,GYN
644221,10/02/2019 11:38:07,1570027086.59,,12911,,2,-16.6800434749,-49.2692895234,|Rua 9 130, Goias|,-16.694717103,-49.232212007,|Avenida Olinda 204, Goias|,,GYN
644220,10/02/2019 11:38:02,1570027081.0,,6741,,1,-16.7032805342,-49.2643995211,|Avenida 85, 1440, Goiania|,-16.6720764018,-49.2531506717,|Colegio Vitoria - Cursos Tecnicos - Rua 4 - Setor Central, Goiania - GO|,,GYN
644216,10/02/2019 11:37:43,1570027061.98,,11504,,1,-16.7101429483,-49.2945673317,|Avenida T-9 3671, Goias|,-16.6719563,-49.2578027,|Colegio Prevest - Centro - Rua 5 - Setor Central, Goiania - GO|,,GYN
644212,10/02/2019 11:37:32,1570027051.04,,44915,,1,-16.6876791048,-49.2650640383,|Rua 7 Q E7 1123, Goias|,-16.7146646,-49.2595963,|Rua S-6 - Setor Bela Vista, Goiania - GO|,,GYN
644211,10/02/2019 11:37:31,1570027049.18,,12911,,2,-16.6800434749,-49.2692895234,|Rua 9 130, Goias|,-16.694717103,-49.232212007,|Avenida Olinda 204, Goias|,,GYN
644210,10/02/2019 11:37:26,1570027045.31,,34184,,1,-16.6770517664,-49.252342321,|Rua 20 Q 49, 252, Goiania|,-16.7167280006,-49.2745724693,|Eldorado Business Tower - Avenida C-255 - Setor Nova Suica, Goiania - GO|,,GYN
644206,10/02/2019 11:37:13,1570027031.43,,14171,,1,-16.7107970644,-49.2738482729,|Rua C-246 29, Goias|,-16.6993004137,-49.2707228288,|Rua T-28 1809, Goias|,,GYN
644205,10/02/2019 11:37:09,1570027027.5,,42358,,1,-16.6694202088,-49.2633209378,|Instituto Santo Tomas de Aquino - Rua 55 - Setor Central, Goiania - GO|,-16.6839465965,-49.2686608806,|Rua 6-A 54, Goias|,,GYN
644201,10/02/2019 11:36:39,1570026997.1,,51925,,1,-16.6914854046,-49.2771618068,|Banco do Brasil - Avenida T-7 - Setor Bueno, Goiania - GO|,-16.6762651,-49.2574606,|Bradesco - Avenida Goias - Setor Central, Goiania - GO|,,GYN
644200,10/02/2019 11:36:33,1570026992.41,,49767,,1,-16.6770418101,-49.2461135611,|PUC Goias Area 4 - Praca Universitaria - Setor Leste Universitario, Goiania - GO|,-16.6929042371,-49.2764758319,|Rua T-048, 553, Goiania|,,GYN
644199,10/02/2019 11:36:07,1570026965.45,,35366,,1,-16.6913890598,-49.2416004092,|Avenida D - Jardim Goias, Goiania - GO|,-16.6592319053,-49.2606625333,|Avenida Goias 2940, Goias|,,GYN
644198,10/02/2019 11:35:57,1570026955.69,,51925,,1,-16.6914854046,-49.2771618068,|Banco do Brasil - Avenida T-7 - Setor Bueno, Goiania - GO|,-16.6762651,-49.2574606,|Bradesco - Avenida Goias - Setor Central, Goiania - GO|,,GYN
644197,10/02/2019 11:35:37,1570026934.9,,36976,,1,-16.6903167386,-49.2647874355,|Rua 22 85, Goias|,-16.6773722974,-49.2436828092,|Praca Universitaria - Setor Leste Universitario, Goiania - GO|,,GYN
644196,10/02/2019 11:35:31,1570026929.09,,33126,,1,-16.6899692526,-49.2598119378,|Rua 105 C, 72 - Setor Sul|,-16.6904105148,-49.2399461567,|Ministerio Publico do Estado de Goias - Jardim Goias, Goiania - GO|,,GYN
644195,10/02/2019 11:35:22,1570026920.58,,48462,,1,-16.6923207122,-49.235220775,|Rua 37 Q A25 545, Goias|,-16.699724313,-49.2724075913,|Avenida T-1 1403, Goias|,,GYN
644194,10/02/2019 11:35:06,1570026904.51,,33978,,1,-16.7155190294,-49.260715507,|Edificio Veredas do Araguaia - Rua T-64 - Setor Bela Vista, Goiania - GO|,-16.6954788548,-49.2674599215,|IAD - Instituto do Aparelho Digestivo - Rua 34 - Setor Marista, Goiania - GO|,,GYN
644193,10/02/2019 11:34:55,1570026892.8,,33126,,1,-16.6899692526,-49.2598119378,|Rua 105 C, 72 - Setor Sul|,-16.6904105148,-49.2399461567,|Ministerio Publico do Estado de Goias - Jardim Goias, Goiania - GO|,,GYN
644191,10/02/2019 11:34:36,1570026873.8,,46802,,1,-16.7142956005,-49.2725034803,|Avenida T-63 1483, Goias|,-16.7026594687,-49.2325838283,|Rua 72 312, Goias|,,GYN
644190,10/02/2019 11:34:25,1570026863.95,,15473,,1,-16.7000197574,-49.2749406025,|Avenida T-2 839, Goias|,-16.7166634581,-49.2746086791,|Eldorado Business Tower - Avenida C-255 - Setor Nova Suica, Goiania - GO|,,GYN
644189,10/02/2019 11:34:19,1570026858.09,,33126,,1,-16.6899692526,-49.2598119378,|Rua 105 C, 72 - Setor Sul|,-16.6904105148,-49.2399461567,|Ministerio Publico do Estado de Goias - Jardim Goias, Goiania - GO|,,GYN
644188,10/02/2019 11:33:46,1570026823.81,,33126,,1,-16.6899692526,-49.2598119378,|Rua 105 C, 72 - Setor Sul|,-16.6904105148,-49.2399461567,|Ministerio Publico do Estado de Goias - Jardim Goias, Goiania - GO|,,GYN
644187,10/02/2019 11:33:22,1570026801.4,,37214,,1,-16.7448805727,-49.2819746956,|Avenida Sao Joao 3, Goias|,-16.7096318,-49.2705758,|Parque Vaca Brava - Avenida T-10 - Setor Bueno, Goiania - GO|,,GYN
644186,10/02/2019 11:33:19,1570026797.8,,15473,,1,-16.7000197574,-49.2749406025,|Avenida T-2 839, Goias|,-16.7166634581,-49.2746086791,|Eldorado Business Tower - Avenida C-255 - Setor Nova Suica, Goiania - GO|,,GYN
644184,10/02/2019 11:32:37,1570026755.76,,48462,,1,-16.6923207122,-49.235220775,|Rua 37 Q A25 545, Goias|,-16.699724313,-49.2724075913,|Avenida T-1 1403, Goias|,,GYN
644182,10/02/2019 11:32:36,1570026753.75,,15473,,1,-16.7000197574,-49.2749406025,|Avenida T-2 839, Goias|,-16.7166634581,-49.2746086791,|Eldorado Business Tower - Avenida C-255 - Setor Nova Suica, Goiania - GO|,,GYN
644180,10/02/2019 11:32:26,1570026743.94,,15410,,1,-16.6925185392,-49.2362846062,|Avenida Fued Jose Sebba, Goiania|,-16.7139022391,-49.2530350015,|Terminal Isidoria - Praca Terminal Isidoria - Setor Pedro Ludovico, Goiania - GO|,,GYN
644177,10/02/2019 11:32:07,1570026725.25,,53427,,3,-16.6919350131,-49.2720656097,|Avenida R 11 1062, Goias|,-16.6719569221,-49.2362785712,|Camelodromo Praca da Biblia - Avenida Anhanguera - Setor Leste Universitario, Goiania - GO|,,GYN
644175,10/02/2019 11:32:00,1570026718.57,,15473,,1,-16.7000197574,-49.2749406025,|Avenida T-2, 839 - Setor Bueno|,-16.7166634581,-49.2746086791,|Eldorado Business Tower - Avenida C-255 - Setor Nova Suica, Goiania - GO|,,GYN
644173,10/02/2019 11:31:48,1570026706.84,,16500,,1,-16.6714735424,-49.2345763743,|Praca da Biblia, Goiania - GO|,-16.6913129473,-49.2375070229,|Avenida Fued Jose Sebba - Jardim Goias, Goiania - GO|,,GYN
644172,10/02/2019 11:31:27,1570026685.92,,53419,None,1,-16.7215451851,-49.2894211784,|Chalise Bebidas - Jardim America, Goiania - GO|,-16.7196126,-49.2671925,|Edificio Absolut Business Style - Avenida T-4 - Setor Bueno, Goiania - GO|,,GYN
644171,10/02/2019 11:31:15,1570026672.47,,46033,,1,-16.6784479029,-49.2444971949,|Praca Universitaria 2102, Goias|,-16.7117527058,-49.2468588799,|Rua 1012 Q 44 820, Goias|,,GYN
644170,10/02/2019 11:30:53,1570026651.85,,50456,,1,-16.6745642609,-49.2646345496,|Cabaca de Mel, Centro de Convencoes - Avenida Paranaiba - Setor Central|,-16.6601348,-49.2544205,|Art Baby Gyn - Rua 67-B - Setor Norte Ferroviario, Goiania - GO|,,GYN
644169,10/02/2019 11:30:43,1570026642.19,,18385,,2,-16.6915538094,-49.257437177,|Rua 127, 92, Goiania|,-16.6686708795,-49.2688147724,|Edificio Cartier - Setor Aeroporto, Goiania - GO|,,GYN
644168,10/02/2019 11:30:38,1570026637.08,,39737,,1,-16.7153876958,-49.2601408437,|Rua T-64 160, Goias|,-16.6795061592,-49.2414552346,|SECIMA (Meio Ambiente) - 11a Avenida - Setor Leste Universitario, Goiania - GO|,,GYN
644167,10/02/2019 11:30:29,1570026627.23,,42833,,1,-16.6749766527,-49.2431218922,|Quinta Avenida 0, Goias|,-16.732724553,-49.2942759767,|Avenida Copacabana 155, Goias|,,GYN
644166,10/02/2019 11:30:29,1570026627.09,,46033,,1,-16.6784479029,-49.2444971949,|Praca Universitaria 2102, Goias|,-16.7126922867,-49.2471314594,|Avenida 2a Radial Q 48 507, Goias|,,GYN
644164,10/02/2019 11:30:17,1570026614.59,,23791,,1,-16.7329168798,-49.2919126153,|Avenida Leblon Qdarea 0 0, Goias|,-16.7413967,-49.2762864,|Buriti Shopping - Vila Sao Tomaz, Aparecida de Goiania - GO|,,GYN
644163,10/02/2019 11:30:06,1570026603.82,,49757,,1,-16.678466852,-49.2449411005,|Avenida Primeira Avenida, Goiania|,-16.715159387,-49.2659109458,|Rua T-037, 15, Goiania|,,GYN
644162,10/02/2019 11:29:59,1570026598.0,,52860,None,1,-16.6701855944,-49.2532157153,|Avenida Paranaiba 370, Goias|,-16.6821019,-49.2615597,|Bosque dos Buritis - Avenida Assis Chateaubriand - Setor Oeste, Goiania - GO|,,GYN
644161,10/02/2019 11:29:52,1570026590.87,,50456,,1,-16.6745263619,-49.2647683248,|Avenida Paranaiba 1702, Goias|,-16.6601348,-49.2544205,|Art Baby Gyn - Rua 67-B - Setor Norte Ferroviario, Goiania - GO|,,GYN
644160,10/02/2019 11:29:52,1570026590.1,,21066,,1,-16.6777965665,-49.2586146668,|Rua 2 342, Goias|,-16.6966657942,-49.2664098367,|Rua 38 318, Goias|,,GYN
644159,10/02/2019 11:29:50,1570026589.26,,38761,,1,-16.6778752537,-49.2586813867,|Rua 9 24, Goias|,-16.6987092011,-49.277100116,|Rua T-30 1580, Goias|,,GYN
644157,10/02/2019 11:29:13,1570026551.3,,35366,,1,-16.6901391419,-49.2403206602,|Rua 23 Q A6 0, Goias|,-16.6588373,-49.2601561,|Rodoviaria de Goiania - Rua 44 - Setor Central, Goiania - GO|,,GYN
644156,10/02/2019 11:29:07,1570026544.98,,15507,,1,-16.6899939813,-49.2547921836,|Rua 87 122, Goias|,-16.6816438511,-49.2528318241,|Rua 95 215, Goias|,,GYN
644155,10/02/2019 11:29:01,1570026539.84,,15410,,1,-16.6925185392,-49.2362846062,|Avenida Fued Jose Sebba, Goiania|,-16.7287132591,-49.2631325126,|Avenida Transbrasiliana, 0201000, Goiania|,,GYN
644154,10/02/2019 11:29:17,1570026538.61,,49368,,1,-16.6999821846,-49.2748323083,|Avenida T-2 839, Goias|,-16.7015095,-49.2639134,|Las Nenas Bistro - Avenida 136 - Setor Marista, Goiania - GO|,,GYN
644153,10/02/2019 11:28:57,1570026535.03,,28203,,1,-16.6909657843,-49.2595108598,|Rua 87 553, Goias|,-16.6774856714,-49.242253527,|Quinta Avenida 0, Goias|,,GYN
644152,10/02/2019 11:28:56,1570026534.37,,41577,,1,-16.6912047199,-49.2720884085,|Rua 11 Q L20 1018, Goias|,-16.6772669526,-49.2615583912,|CIEE Goiania - Rua 3 - Centro, Goiania - GO|,,GYN
644151,10/02/2019 11:28:37,1570026515.68,,2747,None,1,-16.6758174924,-49.2512875423,|Rua 24, 366, Goiania|,-16.7029629369,-49.233347252,|Rua 72, 9, Goiania|,,GYN
644150,10/02/2019 11:28:35,1570026513.04,,15473,,1,-16.7000197574,-49.2749406025,|Avenida T-2, 839 - Setor Bueno|,-16.7166634581,-49.2746086791,|Eldorado Business Tower - Avenida C-255 - Setor Nova Suica, Goiania - GO|,,GYN
644149,10/02/2019 11:28:29,1570026508.07,,52557,,1,-16.7072278172,-49.2701957747,|Avenida T-10 1047, Goias|,-16.6924761477,-49.2707442865,|Extra Hiper - Avenida Portugal - Setor Marista, Goiania - GO|,,GYN
644148,10/02/2019 11:28:24,1570026502.09,,15507,,1,-16.6894794954,-49.2547308281,|Rua 124 135, Goias|,-16.6816438511,-49.2528318241,|Rua 95 215, Goias|,,GYN
644147,10/02/2019 11:28:03,1570026481.95,,48462,,1,-16.6923207122,-49.235220775,|Rua 37 Q A25 545, Goias|,-16.699724313,-49.2724075913,|Avenida T-1 1403, Goias|,,GYN
644146,10/02/2019 11:28:15,1570026476.52,,41778,,1,-16.6783502668,-49.2435661331,|Praca Universitaria, Goiania|,-16.7203150517,-49.2682551965,|Avenida T 14, 1529, Goiania|,,GYN
644145,10/02/2019 11:27:54,1570026473.16,,23405,,1,-16.679524787,-49.2372116446,|Rua 242 1036, Goias|,-16.7023100784,-49.2414706573,|Avenida E 586, Goias|,,GYN
644143,10/02/2019 11:27:49,1570026467.42,,52557,,1,-16.7072278172,-49.2701957747,|Avenida T-10 1047, Goias|,-16.6924761477,-49.2707442865,|Extra Hiper - Avenida Portugal - Setor Marista, Goiania - GO|,,GYN
644142,10/02/2019 11:27:16,1570026434.28,,5390,,1,-16.6950453118,-49.27064538,|Rua 27 230, Goias|,-16.6640669203,-49.2623167858,|Avenida Goias 1979, Goias|,,GYN
644141,10/02/2019 11:27:11,1570026429.74,,52557,,1,-16.7072278172,-49.2701957747,|Avenida T-10 1047, Goias|,-16.6924761477,-49.2707442865,|Extra Hiper - Avenida Portugal - Setor Marista, Goiania - GO|,,GYN
644140,10/02/2019 11:26:40,1570026398.43,,33011,,1,-16.6779301742,-49.253455773,|Justica Federal - Rua 19, 244 - Setor Central|,-16.7096786111,-49.2664202303,|Connect Park Business - Avenida T-12 - Setor Bueno, Goiania - State of Goias|,,GYN
644139,10/02/2019 11:26:30,1570026388.65,,52557,,1,-16.7072278172,-49.2701957747,|Avenida T-10 1047, Goias|,-16.6924761477,-49.2707442865,|Extra Hiper - Avenida Portugal - Setor Marista, Goiania - GO|,,GYN
644138,10/02/2019 11:25:39,1570026337.8,,33,None,1,-16.691359,-49.264922,,-16.70058,-49.275962,,,GYN
644137,10/02/2019 11:25:21,1570026319.87,,35589,,1,-16.7200366571,-49.2421630025,|Avenida Gonzaga Jaime Q 79 0, Goias|,-16.6793407,-49.2710214,|Hospital Alberto Rassi - HGG - Avenida Anhanguera - Setor Oeste, Goiania - GO|,,GYN
644136,10/02/2019 11:25:19,1570026317.83,,52557,,1,-16.7072278172,-49.2701957747,|Avenida T-10 1047, Goias|,-16.6924761477,-49.2707442865,|Extra Hiper - Avenida Portugal - Setor Marista, Goiania - GO|,,GYN
644135,10/02/2019 11:24:45,1570026283.39,,44160,,1,-16.6654294263,-49.2496815696,|Parque Botafogo, Rua 200 Q Area, 743, Goiania|,-16.6792999683,-49.2572474107,|Praca Doutor Pedro L Teixeira Q 1, 300, Goiania|,,GYN
644134,10/02/2019 11:24:23,1570026261.65,,47367,None,1,-16.7350957136,-49.2854444683,|Avenida Laguna 760, Goias|,-16.7191802,-49.238888,|Oi Goiania - Rua 1081 - Vila Redencao, Goiania - GO|,,GYN
644131,10/02/2019 11:24:09,1570026247.07,,48462,,1,-16.6923207122,-49.235220775,|Rua 37 Q A25 545, Goias|,-16.699724313,-49.2724075913,|Avenida T-1 1403, Goias|,,GYN
644124,10/02/2019 11:23:33,1570026212.41,,14287,,1,-16.7173024599,-49.2698936909,|A Quicheria - Avenida T-15 - Setor Bueno, Goiania - GO|,-16.7031382738,-49.2331122234,|Rua 72, 48 - Jardim Goias|,,GYN
644118,10/02/2019 11:23:02,1570026181.33,,14175,,1,-16.6802448475,-49.24446702,|11a Avenida 397, Goias|,-16.7005538042,-49.2568625137,|Alameda Ricardo Paranhos, 799 - Setor Marista|,,GYN
644113,10/02/2019 11:22:15,1570026133.05,,52151,,1,-16.7155148549,-49.23973158,|Rua Sao Luis Q 4 480, Goias|,-16.7105465931,-49.2878990248,|Rua C-142, 535 - Jardim America|,,GYN
644112,10/02/2019 11:22:06,1570026125.41,,45994,,1,-16.688227638,-49.241052568,|Receita Federal - R. 25 de Marco - Setor Leste Universitario, Goiania - GO|,-16.6902012,-49.2765659,|Rua T-27, 395 - Setor Bueno|,,GYN
644111,10/02/2019 11:21:11,1570026069.29,,51528,,1,-16.6982210719,-49.2701407894,|Rua Orestes Ribeiro, 0079000, Goiania|,-16.6693463359,-49.2395535484,|Avenida Anhanguera, 2, Goiania|,,GYN
644110,10/02/2019 11:20:56,1570026055.18,,51528,,1,-16.6982210719,-49.2701407894,|Rua Orestes Ribeiro, 0079000, Goiania|,-16.6968212262,-49.2755407467,|Rua T-029, 6, Goiania|,,GYN
644109,10/02/2019 11:20:50,1570026049.36,,44884,,1,-16.7036042325,-49.2365317047,|Rua 13, Goiania|,-16.7191655073,-49.2682005465,|Curso Visao - Avenida T-13 - Setor Bueno, Goiania - GO|,,GYN
644108,10/02/2019 11:20:31,1570026029.5,,34721,,1,-16.6907718095,-49.2805524543,|Rua T-29 119, Goias|,-16.6793002894,-49.2572474107,|Tribunal Regional Eleitoral de Goias - Praca Doutor Pedro Ludovico Teixeira - Setor Sul, Goiania - GO|,,GYN
644107,10/02/2019 11:20:26,1570026024.73,,48780,None,1,-16.7243213848,-49.2357863858,|Avenida Nicolau Copernico 251, Goias|,-16.6909519748,-49.28271465,|Rua T-44 505, Goias|,,GYN
644106,10/02/2019 11:20:25,1570026023.66,,43351,,1,-16.7037696138,-49.2409134284,|Avenida E 1240, Goias|,-16.7108079824,-49.2769277841,|Rua C-233 - Jardim America, Goiania - GO|,,GYN
644105,10/02/2019 11:20:13,1570026012.66,,48634,,1,-16.6770418101,-49.2461135611,|PUC Goias Area 4 - Praca Universitaria - Setor Leste Universitario, Goiania - GO|,-16.7094063023,-49.2650841549,|TWO LIFE RESIDENCE - Rua T-36 - Setor Bueno, Goiania - GO|,,GYN
644104,10/02/2019 11:20:06,1570026004.14,,46756,None,1,-16.7219767413,-49.2693039402,|Avenida T-15 2155, Goias|,-16.7101919,-49.2372513,|Flamboyant Shopping Center - Avenida Deputado Jamel Cecilio - Jardim Goias, Goiania - GO|,,GYN
644103,10/02/2019 11:20:00,1570025997.99,,37575,,1,-16.6829628748,-49.2651153356,|Rua 5 628, Goias|,-16.6779308165,-49.2537726089,|Rua 19 260, Goias|,,GYN
644102,10/02/2019 11:19:59,1570025997.87,,26211,,1,-16.6723898751,-49.2450715229,|Faculdade de Nutricao - UFG - Setor Leste Universitario, Goiania - GO|,-16.7079961,-49.2729244,|Goiania Shopping - Avenida T-10 - Setor Bueno, Goiania - GO|,,GYN
644101,10/02/2019 11:19:59,1570025997.57,,33,None,1,-16.691359,-49.264922,,-16.70058,-49.275962,,,GYN
644099,10/02/2019 11:19:16,1570025954.34,,37575,,1,-16.6829532399,-49.2650865018,Localizacao marcada para embarque,-16.6779311377,-49.2537726089,|Rua 19 260, Goias|,,GYN
644098,10/02/2019 11:19:08,1570025946.36,,53789,,1,-16.6774583718,-49.2459378764,|Avenida Universitaria, Goiania|,-16.7154936617,-49.2374838889,|Flamboyant Residence - Avenida Sao Joao - Alto da Gloria, Goiania - GO|,,GYN
644097,10/02/2019 11:19:03,1570025941.37,,51614,,1,-16.6686130657,-49.2570227757,|Rua 73 - Setor Central, Goiania - GO|,-16.6845526283,-49.2610018328,|Tribunal de Justica do Estado de Goias - Avenida Assis Chateaubriand - Setor Oeste, Goiania - GO|,,GYN
644096,10/02/2019 11:18:58,1570025936.47,,7036,,1,-16.6738348648,-49.2485201731,|Rua 232, SN, Goiania|,-16.7127449493,-49.2611731589,|Rua S 4 Q S16, 31, Goiania|,,GYN
644095,10/02/2019 11:18:39,1570025917.4,,44723,,1,-16.6718522167,-49.252502583,|Informac - Rua 24 - Setor Central, Goiania - State of Goias|,-16.7142818,-49.2667448,|Kalunga - Avenida T-63 - Setor Bueno, Goiania - State of Goias|,,GYN
644094,10/02/2019 11:17:53,1570025871.69,,42833,,1,-16.6749766527,-49.2431218922,|Quinta Avenida 0, Goias|,-16.732724553,-49.2942759767,|Avenida Copacabana 155, Goias|,,GYN
644093,10/02/2019 11:17:32,1570025850.28,,53789,,1,-16.6770569052,-49.2421257868,|Praca Universitaria, Goiania|,-16.7154936617,-49.2374838889,|Flamboyant Residence - Avenida Sao Joao - Alto da Gloria, Goiania - GO|,,GYN
644092,10/02/2019 11:17:26,1570025844.34,,45857,,1,-16.6718403329,-49.2450628057,|Rua 227 119, Goias|,-16.6667468,-49.2653923,|Rua 78, Goiania - GO|,,GYN
644091,10/02/2019 11:17:24,1570025843.49,,37575,,1,-16.6829532399,-49.2650865018,Localizacao marcada para embarque,-16.6779311377,-49.2537726089,|Rua 19 260, Goias|,,GYN
644090,10/02/2019 11:16:42,1570025801.2,,44917,,1,-16.6749069572,-49.2438021675,|Rua 235 307, Goias|,-16.6706001,-49.2593842,|Avenida Goias - Setor Central, Goiania - GO|,,GYN
644089,10/02/2019 11:16:05,1570025763.85,,33441,,1,-16.7252891599,-49.2846723273,|FM Engenharia - Rua Anaca - Parque Amazonia, Goiania - GO|,-16.6728001,-49.2712794,|Rua 6-A - Setor Aeroporto, Goiania - Goias|,,GYN
644088,10/02/2019 11:15:11,1570025708.96,,47367,None,1,-16.7350359934,-49.2855131999,|Avenida Laguna 750, Goias|,-16.7191802,-49.238888,|Oi Goiania - Rua 1081 - Vila Redencao, Goiania - GO|,,GYN
644087,10/02/2019 11:15:04,1570025702.33,,43351,,1,-16.7037699349,-49.2409151047,|Avenida E 1240, Goias|,-16.7108079824,-49.2769277841,|Rua C-233 - Jardim America, Goiania - GO|,,GYN
644086,10/02/2019 11:15:02,1570025700.11,,14171,,1,-16.7107977067,-49.2738476023,|Rua C-246 29, Goias|,-16.6989738179,-49.2706386745,|Avenida T-8 36, Goias|,,GYN
644085,10/02/2019 11:14:54,1570025693.1,,23632,None,1,-16.6925243199,-49.2853368446,|Avenida T-6 831, Goias|,-16.6713280464,-49.2387217283,|Rua 227 A Q 67 0, Goias|,,GYN
644084,10/02/2019 11:14:28,1570025666.68,,7667,,1,-16.7102126309,-49.2603145167,|Avenida Edmundo Pinheiro de Abreu, 387 - Setor Bela Vista|,-16.6792999683,-49.2572474107,|Tribunal Regional Eleitoral de Goias - Praca Doutor Pedro Ludovico Teixeira - Setor Sul, Goiania - GO|,,GYN
644083,10/02/2019 11:14:18,1570025656.7,,12299,,1,-16.6806601176,-49.2582874373,|Rua Oitenta e Dois, 0046000, Goiania|,-16.6970941953,-49.2645473778,|Avenida 85, 1760, Goiania|,,GYN
644082,10/02/2019 11:13:58,1570025636.77,,21755,,1,-16.6747621063,-49.2420939356,|PUC Goias Area I - Rua 235 - Setor Leste Universitario, Goiania - GO|,-16.716853,-49.2688172,|Av. T-5, 1113 - Setor Bueno|,,GYN
644080,10/02/2019 11:13:49,1570025628.35,,51614,,1,-16.6686130657,-49.2570227757,|Rua 73 - Setor Central, Goiania - GO|,-16.6845526,-49.2610018,|Tribunal de Justica do Estado de Goias - Avenida Assis Chateaubriand - Setor Oeste, Goiania - GO|,,GYN
644079,10/02/2019 11:13:45,1570025623.79,,33,None,1,-16.691359,-49.264922,,-16.70058,-49.275962,,,GYN
644078,10/02/2019 11:13:39,1570025617.73,,36270,,4,-16.6948349628,-49.2701075971,|Avenida Portugal 990, Goias|,-16.7079961,-49.2729244,|Goiania Shopping - Avenida T-10 - Setor Bueno, Goiania - GO|,,GYN
644077,10/02/2019 11:13:34,1570025613.48,,47367,None,3,-16.7350459468,-49.2855574563,|Rua Manaus Q 126 1235, Goias|,-16.7191802,-49.238888,|Oi Goiania - Rua 1081 - Vila Redencao, Goiania - GO|,,GYN
644075,10/02/2019 11:12:58,1570025576.4,,21755,,1,-16.6747621063,-49.2420939356,|PUC Goias Area I - Rua 235 - Setor Leste Universitario, Goiania - GO|,-16.716853,-49.2688172,|Av. T-5, 1113 - Setor Bueno|,,GYN
644074,10/02/2019 11:12:33,1570025551.54,,51614,,1,-16.6686130657,-49.2570227757,|Rua 73 - Setor Central, Goiania - GO|,-16.6845526,-49.2610018,|Tribunal de Justica do Estado de Goias - Avenida Assis Chateaubriand - Setor Oeste, Goiania - GO|,,GYN
644072,10/02/2019 11:12:28,1570025546.12,,24025,,1,-16.6833344608,-49.2410824075,|6a Avenida 94, Goias|,-16.7079961,-49.2729244,|Goiania Shopping - Avenida T-10 - Setor Bueno, Goiania - GO|,,GYN
644071,10/02/2019 11:12:24,1570025542.07,,53828,None,1,-16.6918123343,-49.2392729223,|Rua 23 - Jardim Goias, Goiania - GO|,-16.7094758,-49.2660304,|Rua T-37 - Setor Bueno, Goiania - GO|,,GYN
644070,10/02/2019 11:12:13,1570025531.6,,14171,,1,-16.7107977067,-49.2738476023,|Rua C-246 29, Goias|,-16.6989738179,-49.2706386745,|Avenida T-8 36, Goias|,,GYN
644069,10/02/2019 11:11:32,1570025490.87,,53833,None,1,-16.7111348791,-49.2590183392,|Alameda Couto Magalhaes 903, Goias|,-16.6905473251,-49.2536562681,|Rua 89 2, Goias|,,GYN
644068,10/02/2019 11:11:16,1570025475.48,,53828,None,1,-16.6918123343,-49.2392729223,|Rua 23 - Jardim Goias, Goiania - GO|,-16.711789634,-49.2681717128,|Rua T-38 577, Goias|,,GYN
644066,10/02/2019 11:10:13,1570025411.95,,42758,,1,-16.7024115558,-49.2413935438,|Avenida E, 1000 - Jardim Goias|,-16.7089047134,-49.2660142109,|Prana Cafe - Rua T-37 - Setor Bueno, Goiania - GO|,,GYN
644065,10/02/2019 11:10:06,1570025404.37,,2429,,1,-16.7085001017,-49.2866953835,|Avenida T-9 2768, Goias|,-16.676315314,-49.241101183,|Avenida Universitaria 1533, Goias|,,GYN
644064,10/02/2019 11:09:46,1570025384.06,,53828,None,1,-16.6918123343,-49.2392729223,|Rua 23 - Jardim Goias, Goiania - GO|,-16.7123117666,-49.2669777945,|Avenida T-4 545, Goias|,,GYN
644063,10/02/2019 11:09:08,1570025346.12,,53303,None,1,-16.71963528,-49.2714631185,|Rua C-179, 0616000, Goiania|,-16.6966930912,-49.2697991431,|Edificio Orion - Avenida Mutirao - Setor Marista, Goiania - GO|,,GYN
644062,10/02/2019 11:08:59,1570025337.81,,9397,,1,-16.7425734255,-49.277866222,|Buriti Shopping, Rua Rio Verde, 102/104, Goiania|,-16.6794098083,-49.2611312494,|Alameda dos Buritis, Goiania|,,GYN
644061,10/02/2019 11:08:47,1570025326.2,,53832,None,1,-16.7234525022,-49.2670612782,|Avenida Rui Barbosa Q 8 176, Goias|,-16.7261503279,-49.271940887,|Avenida Feira De Santana Q 231 0, Goias|,,GYN
644060,10/02/2019 11:08:41,1570025319.16,,50863,,1,-16.6980303158,-49.2520865053,|Drogaria Santa Marta - Rua 90 - Setor Sul, Goiania - GO|,-16.7101917582,-49.2372512072,|Flamboyant Shopping Center - Avenida Deputado Jamel Cecilio - Jardim Goias, Goiania - GO|,,GYN
644059,10/02/2019 11:08:14,1570025292.6,,44884,,1,-16.7037108473,-49.2390513048,|Parque Flamboyant, R 55, Goiania|,-16.7191655073,-49.2682005465,|Curso Visao - Avenida T-13 - Setor Bueno, Goiania - GO|,,GYN
644058,10/02/2019 11:08:11,1570025290.12,,53828,None,1,-16.6918123343,-49.2392729223,|Rua 23 - Jardim Goias, Goiania - GO|,-16.709475664,-49.2660303041,|Rua T-37 - Setor Bueno, Goiania - GO|,,GYN
644057,10/02/2019 11:07:53,1570025271.29,,49369,,1,-16.7139404514,-49.2677224427,|Avenida T-63 992, Goias|,-16.7133046495,-49.2377775908,|Rua Fortaleza 244, Goias|,,GYN
644056,10/02/2019 11:07:41,1570025259.93,,33,None,1,-16.691359,-49.264922,,-16.70058,-49.275962,,,GYN
644055,10/02/2019 11:07:16,1570025235.33,,53828,None,1,-16.6918123343,-49.2392729223,|Rua 23 - Jardim Goias, Goiania - GO|,-16.7094758,-49.2660304,|Rua T-37 - Setor Bueno, Goiania - GO|,,GYN
644054,10/02/2019 11:07:04,1570025221.93,,28062,,1,-16.7174861324,-49.2780737579,|Rua C156 Q 387, 422, Goiania|,-16.7106217345,-49.2425717041,|Rua Dona Gercina Borges Teixeira, 5, Goiania|,,GYN
644053,10/02/2019 11:06:33,1570025191.1,,52290,,1,-16.6900614232,-49.2751786485,|Avenida Castelo Branco 371, Goias|,-16.6689034192,-49.2486153916,|NTE GOIANIA - Rua 201 - Setor Leste Vila Nova, Goiania - GO|,,GYN
644052,10/02/2019 11:06:08,1570025166.66,,50153,,1,-16.7200886755,-49.2613686249,|Rua S 3, 11, Goiania|,-16.7154281555,-49.2840933055,|Hospital Jardim America - Avenida T-63 - Jardim America, Goiania - GO|,,GYN
644051,10/02/2019 11:06:04,1570025162.56,,28062,,1,-16.7174861324,-49.2780737579,|Rua C156 Q 387, 422, Goiania|,-16.7106217345,-49.2425717041,|Rua Dona Gercina Borges Teixeira, 5, Goiania|,,GYN
644050,10/02/2019 11:05:55,1570025153.85,,51152,,1,-16.6799117958,-49.2622376606,|Rua Vinte e Nove, Goiania|,-16.70483062,-49.242320247,|Rua 64, 0B28000, Goiania|,,GYN
644049,10/02/2019 11:04:50,1570025088.81,,9474,,1,-16.6990052893,-49.2733993381,|Rua T-051, 7, Goiania|,-16.6887864466,-49.2671937123,|Praca do Sol - Rua 9 - Setor Oeste, Goiania - GO|,,GYN
644048,10/02/2019 11:04:20,1570025059.03,,51788,,1,-16.6925259256,-49.2364006117,|Avenida Fued Jose Sebba 1184, Goias|,-16.6770418101,-49.2461135611,|PUC Goias Area 4 - Praca Universitaria - Setor Leste Universitario, Goiania - GO|,,GYN
644046,10/02/2019 11:04:06,1570025044.99,,53826,None,1,-16.6616206807,-49.2620552704,|Estacio de Sa de Goias - Avenida Goias - Setor Central, Goiania - GO|,-16.7101919,-49.2372513,|Shopping Flamboyant - Avenida Deputado Jamel Cecilio - Jardim Goias, Goiania - GO|,,GYN
644045,10/02/2019 11:04:05,1570025043.43,,45349,,3,-16.6919340497,-49.2721772566,|Avenida D 1064, Goias|,-16.6713241923,-49.2356878147,|BR-060 2638, Goias|,,GYN
644044,10/02/2019 11:03:41,1570025019.23,,53826,None,1,-16.6616206807,-49.2620552704,|Estacio de Sa de Goias - Avenida Goias - Setor Central, Goiania - GO|,-16.7079961,-49.2729244,|Goiania Shopping - Avenida T-10 - Setor Bueno, Goiania - GO|,,GYN
644042,10/02/2019 11:03:41,1570025018.51,,9474,,1,-16.6990052893,-49.2733993381,|Rua T-051, 7, Goiania|,-16.6887864466,-49.2671937123,|Praca do Sol - Rua 9 - Setor Oeste, Goiania - GO|,,GYN
644040,10/02/2019 11:03:18,1570024996.55,,45349,,3,-16.6919340497,-49.2721772566,|Avenida D 1064, Goias|,-16.6716652885,-49.23600398,|Terminal Praca Da Biblia - Avenida Anhanguera - Setor Leste Universitario, Goiania - GO|,,GYN
644039,10/02/2019 11:03:10,1570024988.07,,24813,,1,-16.7063132571,-49.240556024,|JK New Concept Business - Avenida E - Jardim Goias, Goiania - State of Goias|,-16.6737468618,-49.2571374401,|Banca Parthenon - Rua 4 - Setor Central, Goiania - State of Goias|,,GYN
644038,10/02/2019 11:03:01,1570024979.91,,53826,None,1,-16.6714735424,-49.2345763743,|Praca da Biblia, Goiania - GO|,-16.7101919,-49.2372513,|Shopping Flamboyant - Avenida Deputado Jamel Cecilio - Jardim Goias, Goiania - GO|,,GYN
644037,10/02/2019 11:02:36,1570024954.58,,53826,None,1,-16.6714735424,-49.2345763743,|Praca da Biblia, Goiania - GO|,-16.7079961,-49.2729244,|Goiania Shopping - Avenida T-10 - Setor Bueno, Goiania - GO|,,GYN
644036,10/02/2019 11:01:55,1570024912.77,,53826,None,1,-16.6714735424,-49.2345763743,|Praca da Biblia, Goiania - GO|,-16.6616208,-49.2620553,|Estacio de Sa - Avenida Goias - Setor Central, Goiania - GO|,,GYN
644035,10/02/2019 11:01:46,1570024904.07,,33,None,1,-16.691359,-49.264922,,-16.70058,-49.275962,,,GYN
644034,10/02/2019 11:00:52,1570024850.12,,40543,,1,-16.6915383942,-49.2416044325,|Av. D, n 257 - Jardim Goias|,-16.7101917582,-49.2372512072,|Flamboyant Shopping Center - Avenida Deputado Jamel Cecilio - Jardim Goias, Goiania - GO|,,GYN
644033,10/02/2019 11:00:43,1570024841.64,,42731,None,1,-16.7152406277,-49.2600104213,|Rua T 64, 13, Goiania|,-16.6776957184,-49.2758217081,|Avenida Anhanguera, 1, Goiania|,,GYN
644032,10/02/2019 11:00:40,1570024838.14,,51788,,1,-16.6925259256,-49.2364006117,|Avenida Fued Jose Sebba 1184, Goias|,-16.6770418101,-49.2461135611,|PUC Goias Area 4 - Praca Universitaria - Setor Leste Universitario, Goiania - GO|,,GYN
644031,10/02/2019 10:59:32,1570024771.05,,41410,,1,-16.7237161214,-49.2355610803,|Avenida Nicolau Copernico 16, Goias|,-16.6838036794,-49.2646560073,|Rua 5 715, Goias|,,GYN
644030,10/02/2019 10:59:21,1570024758.68,,52956,,1,-16.7356039761,-49.2737497017,|Rua Tuxaua, 70 - Parque Amazonia|,-16.7139015969,-49.2707828432,|Avenida T-63, 1296 - Setor Bueno|,,GYN
644029,10/02/2019 10:59:12,1570024750.43,,4131,,2,-16.6758213465,-49.2389869317,|Teatro Basileu Franca - Avenida Universitaria - Setor Leste Universitario, Goiania - GO|,-16.7118243145,-49.2801759392,|Rua C 155 Q 309 385, Goias|,,GYN
644028,10/02/2019 10:59:04,1570024741.74,,42731,None,1,-16.7152406277,-49.2600104213,|Rua T 64, 13, Goiania|,-16.677093519,-49.2695564032,|Rua 6 - A, 009A000, Goiania|,,GYN
644027,10/02/2019 10:58:56,1570024734.33,,44255,,1,-16.6770418101,-49.2461135611,|PUC Goias Area 4 - Praca Universitaria - Setor Leste Universitario, Goiania - GO|,-16.7177616408,-49.2696915194,|America Wings - Rua T-65 - Setor Bueno, Goiania - GO|,,GYN
644026,10/02/2019 10:58:11,1570024689.24,,37441,,1,-16.6818863312,-49.2549222708,|Praca Doutor Pedro Ludovico Teixeira 263, Goias|,-16.7147316687,-49.270247072,|ACS Laboratorios - Avenida T-15 - Setor Bueno, Goiania - GO|,,GYN
644025,10/02/2019 10:58:00,1570024677.71,,51788,,1,-16.6925259256,-49.2364006117,|Avenida Fued Jose Sebba 1184, Goias|,-16.6770418,-49.2461136,|PUC Goias Area 4 - Praca Universitaria - Setor Leste Universitario, Goiania - GO|,,GYN
644024,10/02/2019 10:57:57,1570024675.47,,46995,,1,-16.7350507629,-49.2850723118,|Avenida Laguna 765, Goias|,-16.7362856173,-49.2737396434,|Rua Tejuacu 100, Goias|,,GYN
644023,10/02/2019 10:57:06,1570024624.73,,21558,,1,-16.6898022535,-49.259156473,|Avenida Cora Coralina Q F25 105, Goias|,-16.6647359691,-49.2702946812,|Rua 7 A Q 2 0, Goias|,,GYN
644022,10/02/2019 10:56:02,1570024559.81,,52887,,1,-16.6736126088,-49.2464625835,|Rua 229 21, Goias|,-16.7025265207,-49.2324674875,|Forum Criminal Desembargador Fenelon Teodoro Reis - Rua 72 - Jardim Goias, Goiania - GO|,,GYN
644021,10/02/2019 10:55:55,1570024553.63,,33,None,1,-16.691359,-49.264922,,-16.70058,-49.275962,,,GYN
644020,10/02/2019 10:55:40,1570024538.67,,532,,1,-16.7109791376,-49.2334853858,|Avenida Deputado Jamel Cecilio 3900, Goias|,-16.715453202,-49.2409523204,|Avenida Engenheiro Eurico Viana 19, Goias|,,GYN
644019,10/02/2019 10:55:30,1570024529.14,,39902,,1,-16.6973093589,-49.2556253448,|Avenida 136 761, Goias|,-16.6739758623,-49.2547626793,|Avenida Araguaia 578, Goias|,,GYN
644018,10/02/2019 10:54:53,1570024492.51,,26962,,1,-16.6773401801,-49.2648752779,|Rua 11 250, Goias|,-16.708065,-49.2642262,|Honda Haikar - Avenida 85 - Setor Bueno, Goiania - GO|,,GYN
644017,10/02/2019 10:54:22,1570024460.76,,35931,,1,-16.6827721035,-49.2507534474,|Rua 92 B 115, Goias|,-16.697143,-49.2523733,|Rua 90 - Setor Marista, Goiania - GO|,,GYN
644016,10/02/2019 10:54:11,1570024449.2,,26962,,1,-16.6773401801,-49.2648752779,|Rua 11 250, Goias|,-16.708065,-49.2642262,|Honda Haikar - Avenida 85 - Setor Bueno, Goiania - GO|,,GYN
644015,10/02/2019 10:54:11,1570024448.79,,2357,,1,-16.7154926984,-49.2841174453,Pickup Marker Location,-16.7085164789,-49.2630859092,|Hospital America - Alameda Coronel Joaquim de Bastos - Setor Marista, Goiania - State of Goias|,,GYN
