Id,Last Update,Request,Ride Id,Rider Id,Rider Status,# pax,Origin Lat,Origin Lng,Origin Address,Destination Lat,Destination Lng,Destination Address,Err Statement,City
656772,10/03/2019 18:44:03,1570139038.24,,50424,,1,-16.7094258905,-49.2662831023,|Avenida T 12 Q 123 31, Goias|,-16.7370337181,-49.2676215246,|Avenida Rio Verde 1020, Goias|,,GYN
656770,10/03/2019 18:43:59,1570139034.43,,33,None,1,-16.691359,-49.264922,,-16.70058,-49.275962,,,GYN
656769,10/03/2019 18:43:57,1570139032.43,,16362,,1,-16.7145309747,-49.2647056282,|Edificio Aquarius Center - Setor Bueno, Goiania - GO|,-16.6931113767,-49.2381554469,|Rua 23 420, Goias|,,GYN
656768,10/03/2019 18:43:30,1570139003.01,,4240,,1,-16.6799252849,-49.261303246,|Alameda dos Buritis 231, Goias|,-16.7153257217,-49.2679246143,|Rua T 38 Q 150 0, Goias|,,GYN
656767,10/03/2019 18:43:06,1570138981.26,,5306,,1,-16.6874131877,-49.2644729465,|Avenida Republica Do Libano Q D7 2417, Goias|,-16.671026134,-49.2388726026,|Rua 227 A Q 67 0, Goias|,,GYN
656765,10/03/2019 18:42:55,1570138971.64,,50424,,1,-16.7371277924,-49.2677056789,|Avenida Rio Verde 1020, Goias|,-16.7094669938,-49.266288802,|Avenida T 12 Q 123 31, Goias|,,GYN
656764,10/03/2019 18:42:49,1570138964.85,,44814,,1,-16.6888015408,-49.2609545588,|Rua 106 10, Goias|,-16.7439029442,-49.2807506025,|Avenida Rio Verde 2574, Goias|,,GYN
656763,10/03/2019 18:42:32,1570138948.08,,11504,,1,-16.6719566009,-49.257802628,|Colegio Prevest - Centro - Rua 5 - Setor Central, Goiania - GO|,-16.7101432694,-49.2945673317,|Avenida T-9 3671, Goias|,,GYN
656762,10/03/2019 18:42:27,1570138942.74,,53693,None,1,-16.6973135338,-49.2557675019,|Rua 136-D 43, Goias|,-16.7102151998,-49.2945133522,|Avenida T-9 3659, Goias|,,GYN
656761,10/03/2019 18:42:23,1570138938.61,,54127,None,1,-16.7160713359,-49.2656041682,|Rua T 64, 16, Goiania|,-16.7146713,-49.2710041255,|Avenida T 63, 26, Goiania|,,GYN
656760,10/03/2019 18:42:19,1570138934.49,,11960,,1,-16.713400341,-49.2829114571,|Nefroclinica - Rua C-149 - Jardim America, Goiania - GO|,-16.678846476,-49.2516898736,|Rua 24 Q 44, 25, Goiania|,,GYN
656759,10/03/2019 18:42:09,1570138925.41,,25787,None,1,-16.6770745698,-49.2458879203,|Praca Universitaria 1440, Goias|,-16.706426614,-49.2621115968,|Rua 1122, 244 - Setor Marista|,,GYN
656758,10/03/2019 18:42:08,1570138924.48,,36747,,1,-16.704040004,-49.2406599596,|Avenida e Q B24, 1015, Goiania|,-16.713947837,-49.2514685914,|Avenida 2a Radial Q 117, 84, Goiania|,,GYN
656757,10/03/2019 18:42:05,1570138920.75,,6761,,1,-16.6995329162,-49.2409026995,|Centro de Ensino Sao Jose - Rua 55 - Jardim Goias, Goiania - GO|,-16.69116008,-49.2555083334,|Projeto Linguas - Rua 125 - Setor Sul, Goiania - GO|,,GYN
656756,10/03/2019 18:42:01,1570138915.89,,16362,,1,-16.7145309747,-49.2647056282,|Edificio Aquarius Center - Setor Bueno, Goiania - GO|,-16.6931113767,-49.2381554469,|Rua 23 420, Goias|,,GYN
656755,10/03/2019 18:42:01,1570138915.49,,53693,None,1,-16.6973135338,-49.2557675019,|Rua 136-D 43, Goias|,-16.7096486,-49.29147,|Fujioka - Avenida T-9 - Jardim America, Goiania - GO|,,GYN
656754,10/03/2019 18:41:46,1570138903.03,,8760,None,1,-16.6874202531,-49.2488829419,|Rua 86 Q F33 500, Goias|,-16.6604375,-49.2423185,|Avenida Independencia, 2275 - Leste Vila Nova|,,GYN
656753,10/03/2019 18:41:43,1570138899.76,,50278,,1,-16.6669309981,-49.2629051954,|Rua 74 487, Goias|,-16.7171097963,-49.241306372,|Hospital e Maternidade Dona Iris - Alameda Emilio Povoa - Vila Redencao, Goiania - GO|,,GYN
656752,10/03/2019 18:41:39,1570138893.63,,46935,,1,-16.7114200301,-49.2727777362,|Rua C-248 212, Goias|,-16.6700362433,-49.2485161498,|Irradiacao Espirita Crista - Rua 201 - Leste Vila Nova, Goiania - State of Goias|,,GYN
656751,10/03/2019 18:41:36,1570138892.85,,44532,None,1,-16.6603294544,-49.2561225593,|Rua 67-B 141b, Goias|,-16.735127,-49.2745209,|Rua Pocema - Parque Amazonia, Goiania - GO|,,GYN
656750,10/03/2019 18:41:37,1570138892.61,,42384,,1,-16.6824898002,-49.256933257,|Rua 82 455, Goias|,-16.7130201435,-49.2403977737,|Avenida Sao Joao - Vila Maria Jose, Goiania - GO|,,GYN
656749,10/03/2019 18:41:35,1570138889.38,,16362,,1,-16.7145309747,-49.2647056282,|Edificio Aquarius Center - Setor Bueno, Goiania - GO|,-16.6931113767,-49.2381554469,|Rua 23 420, Goias|,,GYN
656748,10/03/2019 18:41:32,1570138886.71,,11925,,9,-16.7109065652,-49.2603966594,|Rua S 5 Q S34, 99, Goiania|,-16.6683429466,-49.2546828836,|Teatro Madre Esperanca Garrido - Avenida Contorno - Setor Central, Goiania - GO|,,GYN
656747,10/03/2019 18:41:28,1570138884.8,,45585,,1,-16.6762530061,-49.2399749905,|Rua 260 286, Goias|,-16.7448523195,-49.2820283398,|Avenida Sao Joao 3, Goias|,,GYN
656746,10/03/2019 18:41:23,1570138878.04,,53693,None,1,-16.6973135338,-49.2557675019,|Rua 136-D 43, Goias|,-16.7096486,-49.29147,|Fujioka - Avenida T-9 - Jardim America, Goiania - GO|,,GYN
656745,10/03/2019 18:41:12,1570138865.38,,16192,,1,-16.7033974253,-49.2696264759,|Rua T-035, 2071, Goiania|,-16.7152717753,-49.2587621883,|Alameda Couto Magalhaes, 459, Goiania|,,GYN
656744,10/03/2019 18:41:08,1570138864.42,,45212,,1,-16.6984063685,-49.2581519857,|Floricultura Flamboyant - Avenida 136 - Setor Marista, Goiania - GO|,-16.7193623432,-49.2423209175,|Igreja Batista Redencao - Avenida Gonzaga Jaime - Vila Redencao, Goiania - GO|,,GYN
656743,10/03/2019 18:40:56,1570138853.01,,44532,None,1,-16.6603294544,-49.2561225593,|Rua 67-B 141b, Goias|,-16.735127,-49.2745209,|Rua Pocema - Parque Amazonia, Goiania - GO|,,GYN
656742,10/03/2019 18:40:51,1570138846.47,,17684,,1,-16.7170198865,-49.2568092048,|Condominio Residencial Royal Park - Rua 1040 - St. Pedro Ludovic, Goiania - GO|,-16.7413967,-49.2762864,|Buriti Shopping - Vila Sao Tomaz, Aparecida de Goiania - GO|,,GYN
656741,10/03/2019 18:40:44,1570138839.5,,54081,None,1,-16.7070990469,-49.2757828161,|Avenida C. 235 194, Goias|,-16.6741409481,-49.2397141457,|Rua 225 Q 72 487, Goias|,,GYN
656740,10/03/2019 18:40:33,1570138830.37,,39883,,1,-16.6879051983,-49.2759239674,|Rua Rui Brasil Cavalcante 170, Goias|,-16.6588373,-49.2601561,|Rodoviaria de Goiania - Rua 44 - Setor Central, Goiania - GO|,,GYN
656739,10/03/2019 18:40:23,1570138819.02,,35051,None,1,-16.6918630758,-49.2369152606,|Avenida Fued Jose Sebba, 0A13000, Goiania|,-16.74394404,-49.2802178487,|Avenida Rio Verde, Goiania|,,GYN
656738,10/03/2019 18:40:20,1570138814.86,,23670,,1,-16.7065367596,-49.2711948976,|Rua T-30 2704, Goias|,-16.6800566428,-49.250488244,|Rua 10 A 101, Goias|,,GYN
656737,10/03/2019 18:40:06,1570138800.85,,54063,,2,-16.7224696262,-49.2603674904,|Avenida 4a Radial Q 209, 1300, Goiania|,-16.7081866877,-49.2840376496,|Avenida T9, 6, Goiania|,,GYN
656736,10/03/2019 18:40:05,1570138800.79,,6761,,1,-16.6995329162,-49.2409026995,|Centro de Ensino Sao Jose - Rua 55 - Jardim Goias, Goiania - GO|,-16.69116008,-49.2555083334,|Projeto Linguas - Rua 125 - Setor Sul, Goiania - GO|,,GYN
656735,10/03/2019 18:39:38,1570138773.46,,27012,,2,-16.6972390294,-49.255817458,|Nasa Multimarcas - Avenida 136 - Setor Sul, Goiania - GO|,-16.6827772421,-49.2594535276,|ESA - Rua 101 - Setor Sul, Goiania - GO|,,GYN
656734,10/03/2019 18:39:29,1570138765.05,,27012,,1,-16.6972390294,-49.255817458,|Nasa Multimarcas - Avenida 136 - Setor Sul, Goiania - GO|,-16.6827772421,-49.2594535276,|ESA - Rua 101 - Setor Sul, Goiania - GO|,,GYN
656733,10/03/2019 18:39:01,1570138736.29,,53698,,1,-16.7140823827,-49.2730751261,|Av. T-63, 1520 - Setor Nova Suica|,-16.6842132,-49.2626788,|Avenida Assis Chateaubriand Q B5, 396, Goiania|,,GYN
656732,10/03/2019 18:38:56,1570138732.13,,2153,,1,-16.7048688341,-49.2401255295,|Avenida Deputado Jamel Cecilio 52, Goias|,-16.7130907883,-49.2682189867,|Rua T 38 Q 143 738, Goias|,,GYN
656731,10/03/2019 18:38:41,1570138718.13,,54124,None,1,-16.6723461944,-49.2700368538,|Itau - Praca Santos Dumont - Setor Aeroporto, Goiania - GO|,-16.6673508,-49.2489432,|Rua 200, 547 - Setor Leste Vila Nova|,,GYN
656730,10/03/2019 18:38:30,1570138706.12,,30705,,1,-16.7148684616,-49.2689894512,|Residencial Arthur Rezende - Avenida T-5 - Setor Bueno, Goiania - GO|,-16.6873646,-49.2629859,|West Business Center - Setor Oeste, Goiania - GO|,,GYN
656729,10/03/2019 18:38:25,1570138701.31,,3539,,1,-16.734655518,-49.2657567188,|Avenida Rio Verde 654, Goias|,-16.7201580334,-49.2664829269,|FRED BURGUER GRILL - Setor Bueno, Goiania - GO|,,GYN
656728,10/03/2019 18:38:20,1570138695.3,,17711,,1,-16.6971931064,-49.2557296157,|Heliponto - Nasa Business Style - Avenida 136 - Setor Sul, Goiania - GO|,-16.7153437038,-49.2618903145,|Rua T-64, 300 - Setor Bela Vista|,,GYN
656727,10/03/2019 18:38:19,1570138695.18,,53698,,1,-16.7140823827,-49.2730751261,|Av. T-63, 1520 - Setor Nova Suica|,-16.6842131608,-49.262678884,|Av. Assis Chateaubriand, 396 - Setor Oeste|,,GYN
656725,10/03/2019 18:38:05,1570138681.05,,36980,,1,-16.704250664,-49.2405704409,|Drogasil - Rua 56 - Jardim Goias, Goiania - GO|,-16.6867814725,-49.2721950263,|Dog Center Clinica Veterinaria e Pet Shop - Avenida Assis Chateaubriand - Setor Oeste, Goiania - GO|,,GYN
656724,10/03/2019 18:38:04,1570138681.05,,23405,,1,-16.7035965254,-49.2423571274,|Avenida Deputado Jamel Cecilio 1, Goias|,-16.6792916179,-49.2372917756,Toque aqui ou mova no mapa,,GYN
656723,10/03/2019 18:38:05,1570138680.82,,6761,,1,-16.6995329162,-49.2409026995,|Centro de Ensino Sao Jose - Rua 55 - Jardim Goias, Goiania - GO|,-16.69116008,-49.2555083334,|Projeto Linguas - Rua 125 - Setor Sul, Goiania - GO|,,GYN
656722,10/03/2019 18:38:05,1570138680.77,,54063,,2,-16.7224696262,-49.2603674904,|Avenida 4a Radial Q 209, 1300, Goiania|,-16.7081866877,-49.2840376496,|Avenida T9, 6, Goiania|,,GYN
656721,10/03/2019 18:38:01,1570138676.37,,37529,,1,-16.7089734331,-49.2758424953,|Rua C 234 Q 556 636, Goias|,-16.7038171408,-49.2688301951,|Avenida T-1 2326, Goias|,,GYN
656719,10/03/2019 18:37:58,1570138674.87,,27012,,1,-16.6972390294,-49.255817458,|Nasa Multimarcas - Avenida 136 - Setor Sul, Goiania - GO|,-16.6821201395,-49.2603594437,|Avenida Assis Chateaubriand 24, Goias|,,GYN
656717,10/03/2019 18:37:42,1570138657.89,,33,None,1,-16.691359,-49.264922,,-16.70058,-49.275962,,,GYN
656715,10/03/2019 18:37:15,1570138630.84,,37529,,1,-16.7089734331,-49.2758424953,|Rua C 234 Q 556 636, Goias|,-16.7038171408,-49.2688301951,|Avenida T-1 2326, Goias|,,GYN
656714,10/03/2019 18:36:55,1570138611.58,,6977,,1,-16.6808724092,-49.2525113001,|Hospital Santa Helena - Rua 95 - Setor Sul, Goiania - GO|,-16.7364972049,-49.2666733637,|Avenida Rio Verde 900, Goias|,,GYN
656713,10/03/2019 18:36:55,1570138610.72,,40694,,1,-16.7049150764,-49.2407075688,|Avenida E 6, Goias|,-16.7158202293,-49.2645990103,|Rua T-36 3400, Goias|,,GYN
656711,10/03/2019 18:36:27,1570138582.47,,50148,None,1,-16.7164801059,-49.2637232691,|Rua S-1 442, Goias|,-16.6945703,-49.2636579,|Avenida 85, numero 442|,,GYN
656710,10/03/2019 18:36:23,1570138579.58,,41638,,1,-16.6911308554,-49.2829024047,|Rua T 44 Q 28, 553, Goiania|,-16.6793407,-49.2710214,|Praca Doutor Abrao Rassi Q Area, 6479, Goiania|,,GYN
656708,10/03/2019 18:36:04,1570138561.19,,23405,,1,-16.7035965254,-49.2423571274,|Avenida Deputado Jamel Cecilio 1, Goias|,-16.6792916179,-49.2372917756,Toque aqui ou mova no mapa,,GYN
656706,10/03/2019 18:36:05,1570138560.95,,36980,,1,-16.704250664,-49.2405704409,|Drogasil - Rua 56 - Jardim Goias, Goiania - GO|,-16.6867814725,-49.2721950263,|Dog Center Clinica Veterinaria e Pet Shop - Avenida Assis Chateaubriand - Setor Oeste, Goiania - GO|,,GYN
656703,10/03/2019 18:35:33,1570138531.64,,30005,None,1,-16.7230797099,-49.235152714,|Avenida Nicolau Copernico 2, Goias|,-16.7079959415,-49.2729242519,|Goiania Shopping - Avenida T-10 - Setor Bueno, Goiania - GO|,,GYN
656701,10/03/2019 18:35:26,1570138522.44,,52939,,1,-16.7405869963,-49.2757771164,|Avenida Jose Leandro da Cruz 75, Goias|,-16.6594981,-49.2596923,|Araguaia Shopping - Rua 44 - Setor Central, Goiania - GO|,,GYN
656700,10/03/2019 18:35:23,1570138518.38,,11669,,1,-16.6827573299,-49.2560417578,|Rua 82 Q F16, 359, Goiania|,-16.693829138,-49.2809909955,|Avenida T 7 Q 35, 150, Goiania|,,GYN
656699,10/03/2019 18:35:12,1570138507.88,,31604,,1,-16.690529983,-49.2755145952,|Avenida Castelo Branco 276, Goias|,-16.7344856683,-49.2870749161,|Residencial Park Privilege - Rua Maceio - Parque Amazonia, Goiania - GO|,,GYN
656698,10/03/2019 18:34:45,1570138481.52,,14817,,1,-16.679221924,-49.2618235946,|Bosque Dos Buritis, Rua 29 Qda 0, Goiania|,-16.7100241346,-49.2942712829,|Avenida T9, 0263000, Goiania|,,GYN
656696,10/03/2019 18:34:36,1570138471.2,,36202,,1,-16.6781938563,-49.2723727226,|Avenida L 511, Goias|,-16.7097476517,-49.2641547695,|Avenida 85 Q 215 3202, Goias|,,GYN
656695,10/03/2019 18:34:36,1570138470.94,,36664,,1,-16.6915721149,-49.2781823874,|Praca Gilson Alves de Souza Q 32, 50, Goiania|,-16.7023871498,-49.2537404224,|Rua 135, 0253000, Goiania|,,GYN
656694,10/03/2019 18:34:34,1570138470.35,,53149,None,1,-16.6923798034,-49.236025773,|Avenida Fued Jose Sebba Q A16 0, Goias|,-16.6957649926,-49.2508644238,|Rua 118 397, Goias|,,GYN
656693,10/03/2019 18:34:35,1570138470.21,,10358,,1,-16.6864262722,-49.2662210763,|Habib's Setor Oeste - Rua 7 - Setor Oeste, Goiania - GO|,-16.7079959415,-49.2729242519,|Goiania Shopping, Avenida T-010, Goiania|,,GYN
656692,10/03/2019 18:34:29,1570138463.73,,50148,None,1,-16.7165549239,-49.263673313,|Rua S-1 442, Goias|,-16.7229657207,-49.2662918195,|Avenida da Serrinha 45, Goias|,,GYN
656691,10/03/2019 18:34:21,1570138453.82,,25392,,1,-16.7127141224,-49.2556739599,|Rua Mil e Trinta e Um, 0071000, Goiania|,-16.7174720037,-49.2927481234,|Avenida T 63, 0329000, Goiania|,,GYN
656689,10/03/2019 18:34:19,1570138452.08,,39677,,1,-16.7234907125,-49.2681110278,|Avenida Rui Barbosa 122, Goias|,-16.6537553075,-49.2631616816,|Avenida Goias 3592, Goias|,,GYN
656688,10/03/2019 18:34:06,1570138441.16,,36980,,1,-16.704250664,-49.2405704409,|Drogasil - Rua 56 - Jardim Goias, Goiania - GO|,-16.6867814725,-49.2721950263,|Dog Center Clinica Veterinaria e Pet Shop - Avenida Assis Chateaubriand - Setor Oeste, Goiania - GO|,,GYN
656687,10/03/2019 18:34:04,1570138440.84,,23405,,1,-16.7035965254,-49.2423571274,|Avenida Deputado Jamel Cecilio 1, Goias|,-16.6792916179,-49.2372917756,Toque aqui ou mova no mapa,,GYN
656684,10/03/2019 18:34:03,1570138438.09,,14187,,1,-16.6787722856,-49.2670193687,|Avenida Republica do Libano 1469, Goias|,-16.6899525527,-49.2592637613,|Avenida Cora Coralina Q F25 105, Goias|,,GYN
656683,10/03/2019 18:34:03,1570138437.89,,50148,None,1,-16.7165549239,-49.263673313,|Rua S-1 442, Goias|,-16.7229657207,-49.2662918195,|Avenida da Serrinha 45, Goias|,,GYN
656681,10/03/2019 18:33:59,1570138434.93,,14817,,1,-16.679221924,-49.2618235946,|Bosque Dos Buritis, Rua 29 Qda 0, Goiania|,-16.7100241346,-49.2942712829,|Avenida T9, 0263000, Goiania|,,GYN
656679,10/03/2019 18:33:44,1570138420.64,,52517,,1,-16.7392121838,-49.271999225,|Rede Store - Av. Rio Verde - Avenida Rio Verde - Setor dos Afonsos, Goiania - GO|,-16.7194805088,-49.2658576369,|Sara Nossa Terra - Avenida T-13 - Setor Bueno, Goiania - GO|,,GYN
656678,10/03/2019 18:33:39,1570138416.71,,30005,None,1,-16.7230797099,-49.235152714,|Avenida Nicolau Copernico 2, Goias|,-16.7079961,-49.2729244,|Goiania Shopping - Avenida T-10 - Setor Bueno, Goiania - GO|,,GYN
656677,10/03/2019 18:33:35,1570138411.26,,8760,None,1,-16.6874202531,-49.2488829419,|Rua 86 Q F33 500, Goias|,-16.6604373782,-49.2423185706,|Avenida Independencia, 2275 - Leste Vila Nova|,,GYN
656675,10/03/2019 18:33:19,1570138395.45,,14817,,1,-16.679221924,-49.2618235946,|Bosque Dos Buritis, Rua 29 Qda 0, Goiania|,-16.7100241346,-49.2942712829,|Avenida T9, 0263000, Goiania|,,GYN
656671,10/03/2019 18:33:09,1570138382.41,,19848,,1,-16.6950340717,-49.265759401,|Shopping Bougainville, Rua 9 Q E16, Goiania|,-16.7053925912,-49.2714664713,|Arquiteto Marcos Lula - Rua T-30 - Setor Bueno, Goiania - GO|,,GYN
656667,10/03/2019 18:32:45,1570138362.05,,45915,,2,-16.6883846827,-49.2378322408,|CELG Geracao e Transmissao S.A - Jardim Goias, Goiania - GO|,-16.6588371458,-49.2601562664,|Rodoviaria de Goiania - Rua 44 - Setor Central, Goiania - GO|,,GYN
656665,10/03/2019 18:32:38,1570138354.89,,8760,None,1,-16.6874202531,-49.2488829419,|Rua 86 Q F33 500, Goias|,-16.6604375,-49.2423185,|Avenida Independencia, 2275 - Leste Vila Nova|,,GYN
656664,10/03/2019 18:32:40,1570138352.7,,27759,,1,-16.703528446,-49.2615265399,|Rua 1130 278-506, Goias|,-16.7165774014,-49.2693481967,|Avenida T-5 1126, Goias|,,GYN
656663,10/03/2019 18:32:31,1570138346.82,,14472,,1,-16.6866221784,-49.2605257407,|Rua Dezoito, 00A9000, Goiania|,-16.6784919033,-49.2446172237,|Avenida Primeira Avenida Q 88, 675, Goiania|,,GYN
656662,10/03/2019 18:32:31,1570138346.12,,52039,None,2,-16.6664553142,-49.266470857,|Avenida Oeste, 780, Goiania|,-16.7335282144,-49.2830975354,|Rua Cuiaba, Goiania|,,GYN
656661,10/03/2019 18:32:07,1570138322.61,,33,None,1,-16.691359,-49.264922,,-16.70058,-49.275962,,,GYN
656659,10/03/2019 18:32:04,1570138320.84,,36980,,1,-16.704250664,-49.2405704409,|Drogasil - Rua 56 - Jardim Goias, Goiania - GO|,-16.6867814725,-49.2721950263,|Dog Center Clinica Veterinaria e Pet Shop - Avenida Assis Chateaubriand - Setor Oeste, Goiania - GO|,,GYN
656658,10/03/2019 18:32:05,1570138320.79,,23405,,1,-16.7035965254,-49.2423571274,|Avenida Deputado Jamel Cecilio 1, Goias|,-16.6792916179,-49.2372917756,Toque aqui ou mova no mapa,,GYN
656656,10/03/2019 18:31:49,1570138305.8,,45915,,2,-16.6883846827,-49.2378322408,|CELG Geracao e Transmissao S.A - Jardim Goias, Goiania - GO|,-16.6588371458,-49.2601562664,|Rodoviaria de Goiania - Rua 44 - Setor Central, Goiania - GO|,,GYN
656655,10/03/2019 18:31:49,1570138304.67,,14472,,1,-16.6866221784,-49.2605257407,|Rua Dezoito, 00A9000, Goiania|,-16.6784919033,-49.2446172237,|Avenida Primeira Avenida Q 88, 675, Goiania|,,GYN
656654,10/03/2019 18:31:36,1570138290.6,,54095,,1,-16.6961336635,-49.2549970374,|Atento Goiania - Viela C - Setor Sul, Goiania - GO|,-16.6996093,-49.2640363,|Interative Coworking - Escritorios Compartilhados - Rua 137 - Setor Marista, Goiania - GO|,,GYN
656653,10/03/2019 18:31:20,1570138276.45,,42384,,1,-16.6799879128,-49.2579843476,|Rua 82 440, Goias|,-16.7130201435,-49.2403977737,|Avenida Sao Joao - Vila Maria Jose, Goiania - GO|,,GYN
656652,10/03/2019 18:31:11,1570138267.79,,52939,,1,-16.7405869963,-49.2757771164,|Avenida Jose Leandro da Cruz 75, Goias|,-16.6594981,-49.2596923,|Araguaia Shopping - Rua 44 - Setor Central, Goiania - GO|,,GYN
656651,10/03/2019 18:31:08,1570138261.93,,14472,,1,-16.6866221784,-49.2605257407,|Rua Dezoito, 00A9000, Goiania|,-16.6784919033,-49.2446172237,|Avenida Primeira Avenida Q 88, 675, Goiania|,,GYN
656649,10/03/2019 18:31:04,1570138258.88,,42384,,1,-16.6799879128,-49.2579843476,|Rua 82 440, Goias|,-16.7130201435,-49.2403977737,|Avenida Sao Joao - Vila Maria Jose, Goiania - GO|,,GYN
656647,10/03/2019 18:30:53,1570138249.66,,45915,,2,-16.6883846827,-49.2378322408,|CELG Geracao e Transmissao S.A - Jardim Goias, Goiania - GO|,-16.6588373,-49.2601561,|Rodoviaria de Goiania - Rua 44 - Setor Central, Goiania - GO|,,GYN
656644,10/03/2019 18:30:32,1570138228.55,,9499,,1,-16.676770097,-49.2552608997,|Avenida Araguaia 240, Goias|,-16.6602003313,-49.2463351786,|Avenida Independencia 2807, Goias|,,GYN
656642,10/03/2019 18:30:27,1570138222.02,,9499,,1,-16.676770097,-49.2552608997,|Avenida Araguaia 240, Goias|,-16.6602003313,-49.2463351786,|Avenida Independencia 2807, Goias|,,GYN
656637,10/03/2019 18:30:09,1570138205.66,,53772,None,1,-16.7042631879,-49.2399920896,|Rua 53 481, Goias|,-16.6691146,-49.2577276,|Eletronica Centro Oeste - Rua 68 - Setor Central, Goiania - GO|,,GYN
656635,10/03/2019 18:30:06,1570138201.5,,26258,,2,-16.7089699008,-49.2881172895,|Avenida T-9 2951, Goias|,-16.7023142531,-49.2397459969,|Rua 55 626, Goias|,,GYN
656634,10/03/2019 18:30:05,1570138201.16,,36980,,1,-16.704250664,-49.2405704409,|Drogasil - Rua 56 - Jardim Goias, Goiania - GO|,-16.6867814725,-49.2721950263,|Dog Center Clinica Veterinaria e Pet Shop - Avenida Assis Chateaubriand - Setor Oeste, Goiania - GO|,,GYN
656632,10/03/2019 18:30:05,1570138201.0,,23405,,1,-16.7035965254,-49.2423571274,|Avenida Deputado Jamel Cecilio 1, Goias|,-16.6792916179,-49.2372917756,Toque aqui ou mova no mapa,,GYN
656630,10/03/2019 18:30:38,1570138195.45,,25787,None,1,-16.6770745698,-49.2458879203,|Praca Universitaria 1440, Goias|,-16.7064258,-49.2621124,|Rua 1122, 244 - Setor Marista|,,GYN
656625,10/03/2019 18:29:39,1570138174.15,,9995,,1,-16.7167071286,-49.2744953558,|Rua C-256 10, Goias|,-16.679714598,-49.2440345138,|1a Avenida 1274, Goias|,,GYN
656623,10/03/2019 18:29:36,1570138171.86,,14472,,1,-16.6866221784,-49.2605257407,|Rua Dezoito, 00A9000, Goiania|,-16.6784919033,-49.2446172237,|Avenida Primeira Avenida Q 88, 675, Goiania|,,GYN
656620,10/03/2019 18:29:32,1570138167.55,,11801,,1,-16.699397718,-49.2650841549,|Rua 9 2379, Goias|,-16.69774097,-49.2407481372,|Rua 56 79, Goias|,,GYN
656619,10/03/2019 18:29:28,1570138163.58,,51570,,1,-16.6748652042,-49.2449809983,|Rua 235 294, Goias|,-16.713052897,-49.279913418,|Rua C. 155 485, Goias|,,GYN
656617,10/03/2019 18:29:25,1570138161.22,,42384,,1,-16.6800120004,-49.2576829344,|Praca Doutor Pedro Ludovico Teixeira 11, Goias|,-16.7130201435,-49.2403977737,|Avenida Sao Joao - Vila Maria Jose, Goiania - GO|,,GYN
656614,10/03/2019 18:29:15,1570138150.15,,44814,,1,-16.6867066428,-49.2544964701,|Rua 104 499, Goias|,-16.7429304476,-49.2784358561,|Avenida Rio Verde 2317, Goias|,,GYN
656612,10/03/2019 18:29:12,1570138147.71,,53734,,1,-16.6708883462,-49.2459241301,|Avenida Segunda Avenida Q 1 3700, Goias|,-16.7164723993,-49.2881410941,|Avenida T-63 3060, Goias|,,GYN
656610,10/03/2019 18:29:03,1570138137.76,,4907,,1,-16.6783232884,-49.2447520047,|Avenida Primeira Avenida, Goiania|,-16.7176161801,-49.2625712603,|Academia Sport Dance - Rua S-2 - Setor Bela Vista, Goiania - GO|,,GYN
656607,10/03/2019 18:28:54,1570138129.42,,11801,,1,-16.699397718,-49.2650841549,|Rua 9 2379, Goias|,-16.69774097,-49.2407481372,|Rua 56 79, Goias|,,GYN
656600,10/03/2019 18:28:20,1570138095.73,,11801,,1,-16.6988781192,-49.2649882659,|Rua T. 53 1171, Goias|,-16.69774097,-49.2407481372,|Rua 56 79, Goias|,,GYN
656597,10/03/2019 18:28:12,1570138087.79,,9995,,1,-16.7167035964,-49.2744990438,|Rua C-256 10, Goias|,-16.679714598,-49.2440345138,|1a Avenida 1274, Goias|,,GYN
656593,10/03/2019 18:27:52,1570138070.23,,30005,None,1,-16.7238153398,-49.2354990542,|Avenida Nicolau Copernico 16, Goias|,-16.7079961,-49.2729244,|Goiania Shopping - Avenida T-10 - Setor Bueno, Goiania - GO|,,GYN
656592,10/03/2019 18:27:50,1570138067.06,,40567,,1,-16.7374613864,-49.2683504149,|Avenida Rio Verde 1099, Goias|,-16.7117016485,-49.2354511097,|Jardim Goias Alameda das Paineiras, Goias|,,GYN
656587,10/03/2019 18:27:34,1570138050.11,,30362,,1,-16.6762135016,-49.2420097813,|Praca Universitaria 400, Goias|,-16.674472404,-49.2592107877,|Rua 8 512, Goias|,,GYN
656586,10/03/2019 18:27:30,1570138046.06,,51570,,1,-16.6748652042,-49.2449809983,|Rua 235 294, Goias|,-16.7129764721,-49.2796173692,|Rua C. 155 485, Goias|,,GYN
656585,10/03/2019 18:27:25,1570138040.81,,48693,,2,-16.7029404578,-49.2375268042,|Parque Flamboyant - Jardim Goias, Goiania - State of Goias|,-16.6749801856,-49.2483176664,|Rua 232 - Setor Leste Universitario, Goiania - State of Goias|,,GYN
656581,10/03/2019 18:26:52,1570138007.43,,16362,,1,-16.7145309747,-49.2647056282,|Edificio Aquarius Center - Setor Bueno, Goiania - GO|,-16.6931113767,-49.2381554469,|Rua 23 420, Goias|,,GYN
656580,10/03/2019 18:26:51,1570138006.88,,51570,,1,-16.6748652042,-49.2449809983,|Rua 235 294, Goias|,-16.7129764721,-49.2796173692,|Rua C. 155 485, Goias|,,GYN
656579,10/03/2019 18:26:48,1570138005.38,,45915,,2,-16.6883846827,-49.2378322408,|CELG Geracao e Transmissao S.A - Jardim Goias, Goiania - GO|,-16.6588373,-49.2601561,|Rodoviaria de Goiania - Rua 44 - Setor Central, Goiania - GO|,,GYN
656578,10/03/2019 18:26:17,1570137972.87,,53512,,1,-16.6719790837,-49.2357548699,|Posto Santo Expedito - Avenida Anhanguera - Setor Leste Universitario, Goiania - GO|,-16.7120362503,-49.2831421271,|Edificio American Park - Rua C-136 - Jardim America, Goiania - GO|,,GYN
656577,10/03/2019 18:26:17,1570137971.56,,53747,,1,-16.6870024285,-49.2605914548,|Rua 18 115, Goias|,-16.7070422081,-49.270112291,|Faculdade Araguaia - Unidade Bueno - Avenida T-10 - Setor Bueno, Goiania - GO|,,GYN
656576,10/03/2019 18:26:07,1570137962.92,,45915,,2,-16.6883846827,-49.2378322408,|CELG Geracao e Transmissao S.A - Jardim Goias, Goiania - GO|,-16.6588373,-49.2601561,|Rodoviaria de Goiania - Rua 44 - Setor Central, Goiania - GO|,,GYN
656575,10/03/2019 18:26:05,1570137961.24,,23405,,1,-16.7035965254,-49.2423571274,|Avenida Deputado Jamel Cecilio 1, Goias|,-16.6792916179,-49.2372917756,Toque aqui ou mova no mapa,,GYN
656573,10/03/2019 18:26:06,1570137960.89,,36980,,1,-16.704250664,-49.2405704409,|Drogasil - Rua 56 - Jardim Goias, Goiania - GO|,-16.6867814725,-49.2721950263,|Dog Center Clinica Veterinaria e Pet Shop - Avenida Assis Chateaubriand - Setor Oeste, Goiania - GO|,,GYN
656570,10/03/2019 18:25:58,1570137953.71,,6977,,1,-16.6808724092,-49.2525113001,|Hospital Santa Helena - Rua 95 - Setor Sul, Goiania - GO|,-16.736462529,-49.2667320371,|Avenida Rio Verde 900, Goias|,,GYN
656567,10/03/2019 18:25:38,1570137932.49,,33,None,1,-16.691359,-49.264922,,-16.70058,-49.275962,,,GYN
656566,10/03/2019 18:25:35,1570137931.71,,21923,,1,-16.7048322256,-49.2407327145,|Avenida Deputado Jamel Cecilio, 2699, Goiania|,-16.7247083028,-49.2621012032,|Rua 1108, 17, Goiania|,,GYN
656563,10/03/2019 18:25:24,1570137916.8,,49090,None,1,-16.7007818092,-49.2532800883,|Rua 135, 20, Goiania|,-16.7127032046,-49.2672728375,|T4 Centre - Avenida T-4 - Setor Bueno, Goiania - GO|,,GYN
656562,10/03/2019 18:25:19,1570137913.91,,9995,,1,-16.7167116241,-49.2744879797,|Rua C-256 10, Goias|,-16.679714598,-49.2440345138,|1a Avenida 1274, Goias|,,GYN
656561,10/03/2019 18:25:04,1570137899.65,,6977,,1,-16.6808724092,-49.2525113001,|Hospital Santa Helena - Rua 95 - Setor Sul, Goiania - GO|,-16.7370202331,-49.2677308246,|Avenida Rio Verde 1020, Goias|,,GYN
656558,10/03/2019 18:24:44,1570137879.22,,51570,,1,-16.6750078069,-49.2449709401,|1a Avenida 815, Goias|,-16.7129844999,-49.279913418,|Rua C. 155 485, Goias|,,GYN
656555,10/03/2019 18:24:38,1570137874.13,,30362,,1,-16.6762135016,-49.2420097813,|Praca Universitaria 400, Goias|,-16.674472404,-49.2592107877,|Rua 8 512, Goias|,,GYN
656551,10/03/2019 18:24:12,1570137848.47,,24426,,1,-16.696139444,-49.2706758901,|Avenida Mutirao Q L28, 2451, Goiania|,-16.6792704206,-49.2533615604,|Rua 14, 1, Goiania|,,GYN
656549,10/03/2019 18:24:08,1570137844.26,,21923,,1,-16.7051568847,-49.2406613007,|Avenida Deputado Jamel Cecilio, 2699, Goiania|,-16.7246928903,-49.2621085793,|Rua 1108, 17, Goiania|,,GYN
656548,10/03/2019 18:24:08,1570137842.17,,26585,,1,-16.6820000237,-49.2541008443,|Rua 83 Q 15 52, Goias|,-16.6960296,-49.2764054,|Rua T-29, 875 - Setor Bueno|,,GYN
656546,10/03/2019 18:24:04,1570137841.14,,44792,,1,-16.7102094197,-49.2373916879,|Unnamed Road, Goias|,-16.7105077,-49.2677698,|Buena Vista Shopping - Avenida T-4 - Setor Bueno, Goiania - GO|,,GYN
656545,10/03/2019 18:24:06,1570137841.1,,11511,,1,-16.6985984087,-49.2645540833,|Avenida 85 2128, Goias|,-16.7084487224,-49.2404671758,|Rua 109 - Jardim Goias, Goiania - GO|,,GYN
656543,10/03/2019 18:24:05,1570137840.94,,26258,,2,-16.7089699008,-49.2881172895,|Avenida T-9 2951, Goias|,-16.7023142531,-49.2397459969,|Rua 55 626, Goias|,,GYN
656539,10/03/2019 18:23:59,1570137834.1,,20039,,1,-16.6800688472,-49.2581214756,|Edificio Dijon - Praca Doutor Pedro Ludovico Teixeira - Setor Sul, Goiania - GO|,-16.690683493,-49.2764751613,|Avenida T-7 500, Goias|,,GYN
656537,10/03/2019 18:23:49,1570137825.23,,51120,None,1,-16.7077319794,-49.2617153004,|Clinica Digestive - Dra. Lana Bezerra - Rua 1125 - Setor Marista, Goiania - GO|,-16.6634354492,-49.2660272866,|Residencial Portal D'Oeste - Avenida Oeste - Setor Central, Goiania - GO|,,GYN
656536,10/03/2019 18:23:47,1570137823.65,,39941,,1,-16.7081207751,-49.2727433288,|Goiania Shopping, Avenida T-010, Goiania|,-16.6891894942,-49.2837198079,|Pizzaria Tropical - Avenida T-2 - Vila Americano do Brasil, Goiania - GO|,,GYN
656532,10/03/2019 18:23:39,1570137813.35,,42355,,1,-16.6890658502,-49.2626158521,|Mortoza Advogados - Rua 106 - Setor Sul, Goiania - GO|,-16.7182827937,-49.2578566074,|Residencial Champs de Mars - Rua 1040 - Setor Pedro Ludovico, Goiania - GO|,,GYN
656530,10/03/2019 18:23:27,1570137802.11,,17584,,1,-16.6786891023,-49.2667551711,|Avenida B 257, Goias|,-16.6714773966,-49.2476833239,|Rua 224 Q A 130, Goias|,,GYN
656525,10/03/2019 18:23:03,1570137776.5,,53747,,1,-16.6870024285,-49.2605914548,|Rua 18 115, Goias|,-16.7070422,-49.2701123,|Faculdade Araguaia - Unidade Bueno - Avenida T-10 - Setor Bueno, Goiania - GO|,,GYN
656523,10/03/2019 18:22:45,1570137759.82,,17584,,1,-16.6786891023,-49.2667551711,|Avenida B 257, Goias|,-16.6714773966,-49.2476833239,|Rua 224 Q A 130, Goias|,,GYN
656520,10/03/2019 18:22:33,1570137746.8,,42561,None,1,-16.7118975287,-49.2521314323,|Avenida Circular, 0026000, Goiania|,-16.7146748322,-49.2777267471,|Geracao 2000 festas e fantasias - Avenida T-63 - Nova Suica, Goiania - GO|,,GYN
656518,10/03/2019 18:22:20,1570137735.84,,11504,,1,-16.6733848925,-49.2577369139,|Farmacia Artesanal - Rua 4 - Setor Central, Goiania - GO|,-16.7101432694,-49.2945673317,|Avenida T-9 3671, Goias|,,GYN
656514,10/03/2019 18:22:05,1570137721.23,,44792,,1,-16.7102094197,-49.2373916879,|Unnamed Road, Goias|,-16.7105077,-49.2677698,|Buena Vista Shopping - Avenida T-4 - Setor Bueno, Goiania - GO|,,GYN
656512,10/03/2019 18:22:05,1570137720.86,,26258,,2,-16.7089699008,-49.2881172895,|Avenida T-9 2951, Goias|,-16.7023142531,-49.2397459969,|Rua 55 626, Goias|,,GYN
656509,10/03/2019 18:21:52,1570137706.62,,53466,,1,-16.6890658502,-49.2650284991,|Rua Joao de Abreu, 00E8000, Goiania|,-16.688553931,-49.2435641214,|Rua Um, Goiania|,,GYN
656508,10/03/2019 18:21:43,1570137698.01,,10358,,1,-16.6831970215,-49.2641792178,|Rua 6 Q C4, 145, Goiania|,-16.7079959415,-49.2729242519,|Goiania Shopping, Avenida T-010, Goiania|,,GYN
656506,10/03/2019 18:21:36,1570137691.14,,41757,None,1,-16.6851300748,-49.2578485608,|Rua 94-E - Setor Sul, Goiania - GO|,-16.7012569,-49.2407304,|Residencial Liberte - Rua 54 - Jardim Goias, Goiania - GO|,,GYN
656504,10/03/2019 18:21:34,1570137689.93,,9995,,1,-16.7167058442,-49.2744977027,|Rua C-256 10, Goias|,-16.679714598,-49.2440345138,|1a Avenida 1274, Goias|,,GYN
656503,10/03/2019 18:21:33,1570137686.64,,53010,,1,-16.6864471475,-49.2595930025,|Avenida Oitenta e Cinco, 0024000, Goiania|,-16.7164576284,-49.2700941861,|Avenida T-15 - Setor Nova Suica, Goiania - GO|,,GYN
656502,10/03/2019 18:21:29,1570137684.72,,11504,,1,-16.6733848925,-49.2577369139,|Farmacia Artesanal - Rua 4 - Setor Central, Goiania - GO|,-16.7101432694,-49.2945673317,|Avenida T-9 3671, Goias|,,GYN
656501,10/03/2019 18:21:19,1570137673.27,,3653,,1,-16.69864112,-49.2538356408,|Rua 135 187, Goias|,-16.6826388204,-49.2443754897,|Rua 222 223, Goias|,,GYN
656499,10/03/2019 18:21:08,1570137663.13,,53466,,1,-16.6890658502,-49.2650284991,|Rua Joao de Abreu, 00E8000, Goiania|,-16.688553931,-49.2435641214,|Rua Um, Goiania|,,GYN
656498,10/03/2019 18:21:04,1570137659.26,,10358,,1,-16.6831970215,-49.2641792178,|Rua 6 Q C4, 145, Goiania|,-16.7079959415,-49.2729242519,|Goiania Shopping, Avenida T-010, Goiania|,,GYN
656497,10/03/2019 18:21:03,1570137657.12,,41757,None,1,-16.6851300748,-49.2578485608,|Rua 94-E - Setor Sul, Goiania - GO|,-16.7142843,-49.2935466,|Rua C-162, 650 - Jardim America|,,GYN
656493,10/03/2019 18:20:37,1570137630.79,,47528,,4,-16.7034831668,-49.2712280899,|Rua T 53 Q 90 1030, Goias|,-16.7360021088,-49.2730177939,|Avenida Feira De Santana Q 44 0, Goias|,,GYN
656492,10/03/2019 18:20:35,1570137630.53,,45222,,1,-16.7050544453,-49.2406244203,|Avenida Deputado Jamel Cecilio, 2699, Goiania|,-16.6994288681,-49.2668356374,|Residencial Point Convenience - Rua 15 - Setor Marista, Goiania - GO|,,GYN
656489,10/03/2019 18:20:21,1570137614.48,,47911,None,1,-16.6912185293,-49.2651817203,|Avenida D 266, Goias|,-16.7357372222,-49.2737071216,|Rua Tuxaua 73, Goias|,,GYN
656484,10/03/2019 18:20:06,1570137601.24,,26258,,2,-16.7089699008,-49.2881172895,|Avenida T-9 2951, Goias|,-16.7023142531,-49.2397459969,|Rua 55 626, Goias|,,GYN
656483,10/03/2019 18:20:05,1570137601.24,,44792,,1,-16.7102094197,-49.2373916879,|Unnamed Road, Goias|,-16.7105077,-49.2677698,|Buena Vista Shopping - Avenida T-4 - Setor Bueno, Goiania - GO|,,GYN
656482,10/03/2019 18:20:06,1570137601.23,,20446,,1,-16.6801880007,-49.2542235553,|Rua 10 22, Goias|,-16.6682141501,-49.2451925576,|Avenida Nona Avenida Q 3 228, Goias|,,GYN
656481,10/03/2019 18:20:05,1570137601.17,,10148,,1,-16.6668352833,-49.255332984,|Rua 66, 577, Goiania|,-16.7024529817,-49.2644793168,|Emporio Prime - Avenida 85 - Setor Marista, Goiania - GO|,,GYN
656478,10/03/2019 18:19:55,1570137589.72,,47528,,3,-16.7034831668,-49.2712280899,|Rua T 53 Q 90 1030, Goias|,-16.7360021088,-49.2730177939,|Avenida Feira De Santana Q 44 0, Goias|,,GYN
656474,10/03/2019 18:19:49,1570137584.5,,9138,,1,-16.6825874341,-49.2558828369,|Rua 82 Q F16, 359, Goiania|,-16.7212228016,-49.2630007491,|Avenida Laudelino Gomes, 0S1A000, Goiania|,,GYN
656472,10/03/2019 18:20:07,1570137578.72,,33920,,1,-16.6797319412,-49.2610326782,|Bosque Dos Buritis, Rua 1 Q Area, Goiania|,-16.721766422,-49.2597257718,|Avenida 4a Radial Q 5, 1185, Goiania|,FlexRequestAssignmentFailure,GYN
656471,10/03/2019 18:19:37,1570137573.52,,52441,None,1,-16.7002564338,-49.2700495943,|Avenida T9, Goiania|,-16.7101917582,-49.2372512072,|Flamboyant Shopping Center - Avenida Deputado Jamel Cecilio - Jardim Goias, Goiania - GO|,,GYN
656462,10/03/2019 18:19:23,1570137559.57,,5013,,1,-16.6974426318,-49.2645946518,|Avenida 85, 1800, Goiania|,-16.7153607226,-49.2374221981,|Avenida Sao Joao, 0013000, Goiania|,,GYN
656461,10/03/2019 18:19:23,1570137558.32,,10358,,1,-16.6831970215,-49.2641792178,|Rua 6 Q C4, 145, Goiania|,-16.7079959415,-49.2729242519,|Goiania Shopping, Avenida T-010, Goiania|,,GYN
656455,10/03/2019 18:19:01,1570137537.56,,5013,,1,-16.6966667576,-49.2654529586,|Rua 9, 2116, Goiania|,-16.7153607226,-49.2374221981,|Avenida Sao Joao, 0013000, Goiania|,,GYN
656452,10/03/2019 18:19:00,1570137534.49,,6183,,1,-16.680389052,-49.2548414692,|Praca Doutor Pedro Ludovico Teixeira 0, 332, Goiania|,-16.7160218852,-49.2596392706,|Rua S-006, 0S25000, Goiania|,,GYN
656446,10/03/2019 18:18:48,1570137523.78,,30716,,1,-16.7139015969,-49.2679001391,|Avenida T-63 1010, Goias|,-16.6776016148,-49.2358051613,|Rua 261-B 500, Goias|,,GYN
656445,10/03/2019 18:18:43,1570137519.2,,13277,,1,-16.7043909968,-49.2348338664,|Sal e Arte Casa Gourmet - Rua 71 - Jardim Goias, Goiania - GO|,-16.6924620172,-49.2796170339,|BUENO MEDICAL CENTER - Setor Bueno, Goiania - GO|,,GYN
656444,10/03/2019 18:18:44,1570137519.04,,6761,,1,-16.6995329162,-49.2409026995,|Centro de Ensino Sao Jose - Rua 55 - Jardim Goias, Goiania - GO|,-16.69116008,-49.2555083334,|Projeto Linguas - Rua 125 - Setor Sul, Goiania - GO|,,GYN
656442,10/03/2019 18:18:41,1570137516.37,,45222,,1,-16.7050544453,-49.2406244203,|Avenida Deputado Jamel Cecilio, 2699, Goiania|,-16.6994288681,-49.2668356374,|Residencial Point Convenience - Rua 15 - Setor Marista, Goiania - GO|,,GYN
656440,10/03/2019 18:18:35,1570137509.49,,54063,,2,-16.7224696262,-49.2603674904,|Avenida 4a Radial Q 209, 1300, Goiania|,-16.7081866877,-49.2840376496,|Avenida T9, 6, Goiania|,,GYN
656433,10/03/2019 18:18:18,1570137493.86,,9499,,1,-16.676770097,-49.2552608997,|Avenida Araguaia 240, Goias|,-16.6602003313,-49.2463351786,|Avenida Independencia 2807, Goias|,,GYN
656426,10/03/2019 18:18:00,1570137476.05,,9995,,1,-16.7167244684,-49.2744842917,|Rua C-256 10, Goias|,-16.679714598,-49.2440345138,|1a Avenida 1274, Goias|,,GYN
656422,10/03/2019 18:17:46,1570137461.33,,23670,,1,-16.7065367596,-49.2711948976,|Rua T-30 2704, Goias|,-16.6800566428,-49.250488244,|Rua 10 A 101, Goias|,,GYN
656420,10/03/2019 18:17:41,1570137456.26,,1609,,1,-16.6746708919,-49.2577452958,|Avenida Anhanguera Q 10 606, Goias|,-16.7143023438,-49.28995125,|Rua C-158 736, Goias|,,GYN
656400,10/03/2019 18:16:38,1570137393.91,,54120,None,1,-16.709260193,-49.2841667309,|Rua C-149 12, Goias|,-16.7101919,-49.2372513,|Shopping Flamboyant - Avenida Deputado Jamel Cecilio - Jardim Goias, Goiania - GO|,,GYN
656397,10/03/2019 18:16:27,1570137383.74,,37441,,1,-16.7144022093,-49.2721792683,|Avenida T-63 1443, Goias|,-16.7086368991,-49.2347128317,|Avenida Deputado Jamel Cecilio 2095, Goias|,,GYN
656395,10/03/2019 18:16:24,1570137379.22,,27011,,1,-16.6888086062,-49.2609716579,|Rua 106 10, Goias|,-16.7393242368,-49.2731378227,|Rua Campos do Jordao 91, Goias|,,GYN
656394,10/03/2019 18:16:18,1570137373.38,,9138,,1,-16.6825874341,-49.2558828369,|Rua 82 Q F16, 359, Goiania|,-16.7212228016,-49.2630007491,|Avenida Laudelino Gomes, 0S1A000, Goiania|,,GYN
656389,10/03/2019 18:16:11,1570137365.79,,7139,,1,-16.6929408478,-49.2681344971,|Rua 26 338, Goias|,-16.7207125741,-49.2632964626,|Avenida 85 628, Goias|,,GYN
656387,10/03/2019 18:16:07,1570137363.31,,42784,,1,-16.6703872986,-49.2685737088,|Colegio Estadual Colemar Natal e Silva - Setor Aeroporto, Goiania - GO|,-16.6775152,-49.235964,|Panoramic Residence - Rua 261-B - Setor Leste Universitario, Goiania - GO|,,GYN
656382,10/03/2019 18:16:05,1570137360.45,,27011,,1,-16.6888086062,-49.2609716579,|Rua 106 10, Goias|,-16.738902673,-49.2713072151,|Avenida Rio Verde Qd25 0 0, Goias|,,GYN
656381,10/03/2019 18:16:04,1570137359.27,,51120,None,1,-16.7077319794,-49.2617153004,|Clinica Digestive - Dra. Lana Bezerra - Rua 1125 - Setor Marista, Goiania - GO|,-16.6634354492,-49.2660272866,|Residencial Portal D'Oeste - Avenida Oeste - Setor Central, Goiania - GO|,,GYN
656376,10/03/2019 18:15:44,1570137338.51,,27011,,1,-16.6888086062,-49.2609716579,|Rua 106 10, Goias|,-16.738902673,-49.2713072151,|Avenida Rio Verde Qd25 0 0, Goias|,,GYN
656374,10/03/2019 18:15:39,1570137333.47,,25787,None,1,-16.6770748909,-49.2458865792,|Praca Universitaria 1440, Goias|,-16.7064258,-49.2621124,|Rua 1122, 244 - Setor Marista|,,GYN
656369,10/03/2019 18:15:20,1570137316.03,,10084,,1,-16.6865556988,-49.259631224,|Rua 101 509, Goias|,-16.7284669855,-49.2630751804,|Avenida Sao Paulo 14, Goias|,,GYN
656368,10/03/2019 18:15:18,1570137313.18,,9138,,1,-16.6825874341,-49.2558828369,|Rua 82 Q F16, 359, Goiania|,-16.7212228016,-49.2630007491,|Avenida Laudelino Gomes, 0S1A000, Goiania|,,GYN
656366,10/03/2019 18:15:11,1570137305.72,,45927,,1,-16.7048258031,-49.2611285672,|Alameda Ricardo Paranhos Q 227 276, Goias|,-16.7284621692,-49.2632408068,|Avenida Transbrasiliana 207, Goias|,,GYN
656364,10/03/2019 18:15:11,1570137305.06,,7139,,1,-16.6929408478,-49.2681344971,|Rua 26 338, Goias|,-16.7207125741,-49.2632964626,|Rua S-4 901, Goias|,,GYN
656363,10/03/2019 18:15:09,1570137303.67,,27011,,1,-16.6888086062,-49.2609716579,|Rua 106 10, Goias|,-16.738902673,-49.2713072151,|Avenida Rio Verde Qd25 0 0, Goias|,,GYN
656360,10/03/2019 18:14:58,1570137294.01,,45852,,1,-16.7202264279,-49.262977615,|Avenida T 14 Q S1a 0, Goias|,-16.7102929103,-49.2948358878,|Avenida T 9 Q 263 3696, Goias|,,GYN
656358,10/03/2019 18:14:57,1570137292.57,,7777,,1,-16.6851740737,-49.2622688413,|Rua 10 250, Goias|,-16.7169819959,-49.269172512,|Avenida T-5 1143, Goias|,,GYN
656354,10/03/2019 18:14:47,1570137283.6,,51127,,1,-16.6934251367,-49.235375002,|Rua 24, 10, Goiania|,-16.6619778542,-49.2675869912,|Avenida Marechal Rondon Q Q, 161, Goiania|,,GYN
656350,10/03/2019 18:14:42,1570137277.92,,30716,,1,-16.7139426992,-49.267537035,|Avenida T-63 984, Goias|,-16.6776016148,-49.2358051613,|Rua 261-B 500, Goias|,,GYN
656348,10/03/2019 18:14:38,1570137274.16,,25787,None,1,-16.6770748909,-49.2458865792,|Praca Universitaria 1440, Goias|,-16.6797727296,-49.2507648468,|Rua 10 A 106, Goias|,,GYN
656347,10/03/2019 18:14:38,1570137273.07,,23635,,1,-16.6773453189,-49.2647160217,|Goiania Corporate Financial Center - Edificio Sede Caixa Economica Federal Goiania - Rua 11 - Setor Central, Goiania - GO|,-16.6898651994,-49.258585833,|Universo Goiania - Rua 105-B - Setor Sul, Goiania - GO|,,GYN
656346,10/03/2019 18:14:36,1570137270.4,,54122,None,1,-16.6916630001,-49.2665110901,|Drogasil - Avenida D - Setor Marista, Goiania - GO|,-16.7188597,-49.2619653,|Faculdade Pitagoras - Rua S-3 - Setor Bela Vista, Goiania - GO|,,GYN
656345,10/03/2019 18:14:35,1570137270.04,,41950,,1,-16.689560747,-49.2697511986,|Rua Joao de Abreu - Setor Oeste, Goiania - GO|,-16.7413443911,-49.2769090086,|Buriti Shopping - Vila Sao Tomaz, Aparecida de Goiania - GO|,,GYN
656341,10/03/2019 18:14:29,1570137262.55,,9138,,1,-16.6825874341,-49.2558828369,|Rua 82 Q F16, 359, Goiania|,-16.7212228016,-49.2630007491,|Avenida Laudelino Gomes, 0S1A000, Goiania|,,GYN
656331,10/03/2019 18:14:08,1570137244.05,,54121,None,2,-16.6716595072,-49.2556323856,|Politeto Contabilidade - Setor Central, Goiania - GO|,-16.7355336607,-49.286063388,|Residencial Livre Buritis - Parque Amazonia, Goiania - GO|,,GYN
656326,10/03/2019 18:14:05,1570137239.64,,27011,,1,-16.6890295599,-49.2607621104,|Rua 105 391, Goias|,-16.7389755558,-49.2713518068,|Avenida Rio Verde Qd25 0 0, Goias|,,GYN
656320,10/03/2019 18:13:55,1570137230.52,,9138,,1,-16.6825874341,-49.2558828369,|Rua 82 Q F16, 359, Goiania|,-16.7212228016,-49.2630007491,|Avenida Laudelino Gomes, 0S1A000, Goiania|,,GYN
656317,10/03/2019 18:13:50,1570137224.86,,33,None,1,-16.691359,-49.264922,,-16.70058,-49.275962,,,GYN
656316,10/03/2019 18:13:48,1570137223.21,,54121,None,1,-16.6716595072,-49.2556323856,|Politeto Contabilidade - Setor Central, Goiania - GO|,-16.7355337,-49.2860634,|Residencial Livre Buritis - Parque Amazonia, Goiania - GO|,,GYN
656314,10/03/2019 18:13:44,1570137218.33,,36469,,1,-16.6914414071,-49.2763591558,|Rua T 27 Q 38 0, Goias|,-16.711924,-49.287211,|Colegio Estadual Jardim America - Praca C-111 - Jardim America, Goiania - GO|,,GYN
656312,10/03/2019 18:13:42,1570137216.48,,52981,None,1,-16.6898976357,-49.2760617658,|Avenida Castelo Branco Q R29 405, Goias|,-16.7127235,-49.2583008,|Rua 1027 - Setor Pedro Ludovico, Goiania - GO|,,GYN
656310,10/03/2019 18:13:36,1570137212.46,,52916,,1,-16.6972756393,-49.2634191737,|Rua 139 Q 51 445, Goias|,-16.6588373,-49.2601561,|Rodoviaria de Goiania - Rua 44 - Setor Central, Goiania - GO|,,GYN
656309,10/03/2019 18:13:36,1570137211.68,,45944,,1,-16.6922523077,-49.27776061,|Avenida T-1 7, Goias|,-16.7402017159,-49.2831186578,|Residencial Amazon - Rua Canuma - Parque Amazonia, Goiania - GO|,,GYN
656308,10/03/2019 18:13:35,1570137210.32,,24948,,1,-16.6866260323,-49.2693713307,|Avenida Assis Chateaubriand Q H6 1159, Goias|,-16.6932931456,-49.2470898852,|Rua 88 629, Goias|,,GYN
656305,10/03/2019 18:13:30,1570137204.77,,10084,,1,-16.6843098304,-49.2609421536,|Avenida Assis Chateaubriand 195, Goias|,-16.7284791868,-49.2632478476,|Avenida Transbrasiliana 207, Goias|,,GYN
656301,10/03/2019 18:13:23,1570137198.74,,27011,,1,-16.6890295599,-49.2607621104,|Rua 105 391, Goias|,-16.7389755558,-49.2713518068,|Avenida Rio Verde Qd25 0 0, Goias|,,GYN
656298,10/03/2019 18:13:39,1570137191.98,,9138,,1,-16.6825874341,-49.2558828369,|Rua 82 Q F16, 359, Goiania|,-16.7212228016,-49.2630007491,|Avenida Laudelino Gomes, 0S1A000, Goiania|,FlexRequestAssignmentFailure,GYN
656296,10/03/2019 18:13:16,1570137191.04,,51526,,1,-16.675888151,-49.2689364776,|Rua 5 A Q 8a, 142, Goiania|,-16.70703418,-49.2681941763,|Rua T-038, 75, Goiania|,,GYN
656295,10/03/2019 18:13:13,1570137188.39,,30716,,1,-16.7139426992,-49.267537035,|Avenida T-63 984, Goias|,-16.6776016148,-49.2358051613,|Rua 261-B 500, Goias|,,GYN
656290,10/03/2019 18:13:06,1570137180.95,,54063,,2,-16.7224696262,-49.2603674904,|Avenida 4a Radial Q 209, 1300, Goiania|,-16.7080636982,-49.2839266732,|Avenida T9, 0525000, Goiania|,,GYN
656287,10/03/2019 18:12:58,1570137173.12,,31878,,1,-16.6931720734,-49.2559700087,|Rua 89 Q F44 399, Goias|,-16.7088318192,-49.2883110791,|Rua C-142 - Jardim America, Goiania - GO|,,GYN
656279,10/03/2019 18:12:42,1570137158.01,,41950,,1,-16.6890770906,-49.265245758,|Rua Joao De Abreu Q E9 111, Goias|,-16.7413447,-49.2769083,|Buriti Shopping - Vila Sao Tomaz, Aparecida de Goiania - GO|,,GYN
656267,10/03/2019 18:12:24,1570137139.1,,31878,,1,-16.6931720734,-49.2559700087,|Rua 89 Q F44 399, Goias|,-16.7088318192,-49.2883110791,|Rua C-142 - Jardim America, Goiania - GO|,,GYN
656261,10/03/2019 18:12:08,1570137122.61,,5013,,1,-16.6966667576,-49.2654529586,|Rua 9, 2116, Goiania|,-16.7153607226,-49.2374221981,|Avenida Sao Joao, 0013000, Goiania|,,GYN
656251,10/03/2019 18:11:59,1570137113.28,,7139,,1,-16.6929408478,-49.2681344971,|Rua 26 338, Goias|,-16.7186934856,-49.2689173669,|Avenida T-5 1249, Goias|,,GYN
656248,10/03/2019 18:11:55,1570137109.08,,31878,,1,-16.6931720734,-49.2559700087,|Rua 89 Q F44 399, Goias|,-16.7088318192,-49.2883110791,|Rua C-142 - Jardim America, Goiania - GO|,,GYN
656247,10/03/2019 18:11:51,1570137106.99,,37441,,1,-16.7149647946,-49.2702138796,|Avenida T-15 1398, Goias|,-16.7087984227,-49.2352066934,|Avenida I 2015, Goias|,,GYN
656245,10/03/2019 18:11:42,1570137097.78,,48277,,1,-16.7146501067,-49.2835870385,|Rua C-148 853, Goias|,-16.692066684,-49.2496852577,|Rua 118 358, Goias|,,GYN
656244,10/03/2019 18:11:39,1570137094.32,,54120,None,1,-16.7092328978,-49.2841965705,|Rua C-149 12, Goias|,-16.7101919,-49.2372513,|Shopping Flamboyant - Avenida Deputado Jamel Cecilio - Jardim Goias, Goiania - GO|,,GYN
656241,10/03/2019 18:11:30,1570137083.69,,42355,,1,-16.6890658502,-49.2626158521,|Mortoza Advogados - Rua 106 - Setor Sul, Goiania - GO|,-16.7182827937,-49.2578566074,|Residencial Champs de Mars - Rua 1040 - Setor Pedro Ludovico, Goiania - GO|,,GYN
656233,10/03/2019 18:11:13,1570137069.17,,27562,,1,-16.7037484193,-49.2712163553,|Rua T 53 Q 98 0, Goias|,-16.7413443911,-49.2769090086,|Buriti Shopping - Vila Sao Tomaz, Aparecida de Goiania - GO|,,GYN
656232,10/03/2019 18:11:14,1570137069.14,,33139,,1,-16.6928814356,-49.2787882313,|Avenida T-007, 1, Goiania|,-16.715837248,-49.2687638104,|Rua T 64, 9, Goiania|,,GYN
656223,10/03/2019 18:11:08,1570137049.96,,37441,,1,-16.7149647946,-49.2702138796,|Avenida T-15 1398, Goias|,-16.7087181426,-49.2344865203,|Avenida Deputado Jamel Cecilio 3674, Goias|,FlexRequestAssignmentFailure,GYN
656218,10/03/2019 18:10:47,1570137043.8,,6889,,1,-16.688314671,-49.276840277,|Avenida Castelo Branco, 600, Goiania|,-16.6752213895,-49.2521555722,|Rua 24 Q 50, 425, Goiania|,,GYN
656215,10/03/2019 18:10:47,1570137042.4,,49709,,1,-16.6719704117,-49.2495306954,|Avenida Anhanguera 4124, Goias|,-16.6954746799,-49.2816276848,|Igreja Videira - Avenida T-7 - Setor Bueno, Goiania - GO|,,GYN
656214,10/03/2019 18:10:47,1570137042.08,,54120,None,1,-16.7092328978,-49.2841965705,|Rua C-149 12, Goias|,-16.7118885375,-49.2890755087,|Avenida C 106 Q 281 476, Goias|,,GYN
656210,10/03/2019 18:10:40,1570137035.23,,51882,,2,-16.7214016539,-49.2708562687,|Rua C-181, 103 - Jardim America|,-16.6811290216,-49.2438259721,|Primeira Avenida, 1990 - Setor Leste Universitario|,,GYN
656209,10/03/2019 18:10:33,1570137027.89,,53441,,1,-16.6770418101,-49.2461135611,|Area IV Puc - Praca Universitaria - Setor Leste Universitario, Goiania - GO|,-16.7393306582,-49.2810248584,|Rua Apore - Parque Amazonia, Goiania - GO|,,GYN
656204,10/03/2019 18:10:30,1570137024.46,,42493,,1,-16.7206111065,-49.2687386647,|La Person Nova Suica - Avenida T-5 - Serrinha, Goiania - GO|,-16.716053996,-49.2872951925,|Rua C143 Q 336, 848, Goiania|,,GYN
656203,10/03/2019 18:10:24,1570137021.02,,26400,,1,-16.6878891406,-49.275980629,|Rua Rui Brasil Cavalcante 170, Goias|,-16.6751632565,-49.2430917174,|Quinta Avenida 0, Goias|,,GYN
656199,10/03/2019 18:10:22,1570137016.87,,41354,,1,-16.6788647827,-49.2602441087,|Panificadora Panino - Rua 13 - Setor Central, Goiania - GO|,-16.7135907606,-49.2881545052,|Rua C-137 1212, Goias|,,GYN
656191,10/03/2019 18:10:06,1570137001.6,,30362,,1,-16.6760988421,-49.2432677373,|Praca Universitaria 464, Goias|,-16.6744891053,-49.2592952773,|Rua 8 525, Goias|,,GYN
656188,10/03/2019 18:10:06,1570137000.93,,50240,,1,-16.7142050472,-49.2545370385,|Avenida Circular, 287, Goiania|,-16.6809716498,-49.2600858584,|Alameda dos Buritis, 62 - Setor Central|,,GYN
656179,10/03/2019 18:09:52,1570136987.72,,5013,,1,-16.6966667576,-49.2654529586,|Rua 9, 2116, Goiania|,-16.7153607226,-49.2374221981,|Avenida Sao Joao, 0013000, Goiania|,,GYN
656176,10/03/2019 18:09:45,1570136979.18,,11531,,1,-16.6976166892,-49.2699037492,|Avenida Mutirao 2653, Goias|,-16.717573152,-49.2699319124,|Rua C-263 325, Goias|,,GYN
656175,10/03/2019 18:09:44,1570136979.14,,49709,,1,-16.6719704117,-49.2495306954,|Avenida Anhanguera 4124, Goias|,-16.6954746799,-49.2816276848,|Igreja Videira - Avenida T-7 - Setor Bueno, Goiania - GO|,,GYN
656171,10/03/2019 18:09:51,1570136977.67,,45390,,1,-16.6760615857,-49.2448502406,|Faculdade de Odontologia UFG - Avenida Universitaria - Setor Leste Universitario, Goiania - GO|,-16.6992454994,-49.2780341953,|Residencial Absoluto - Avenida T-3 - Setor Bueno, Goiania - GO|,,GYN
656166,10/03/2019 18:09:35,1570136971.22,,45710,,1,-16.6735229998,-49.2591873184,|Travessa Delfino Machado Araujo, 0011000, Goiania|,-16.7147730919,-49.2604067177,|Rua S-5 - Setor Bela Vista, Goiania - GO|,,GYN
656162,10/03/2019 18:09:30,1570136964.58,,42546,,1,-16.6752107906,-49.2430739477,|Quinta Avenida 0, Goias|,-16.7179921941,-49.2806580663,|Rua C-152 1016, Goias|,,GYN
656159,10/03/2019 18:09:16,1570136952.21,,5013,,1,-16.6973344078,-49.2645762116,|Avenida 85, 1750, Goiania|,-16.7153607226,-49.2374221981,|Avenida Sao Joao, 0013000, Goiania|,,GYN
656155,10/03/2019 18:09:12,1570136947.74,,2362,,1,-16.7285716599,-49.2631754279,|Avenida Rio Verde 82, Goias|,-16.6784299173,-49.2378235236,|11a Avenida, 1075 - Setor Leste Universitario|,,GYN
656151,10/03/2019 18:08:57,1570136934.33,,12926,,1,-16.7122167168,-49.2379911616,|Rua Terezina 300, Goias|,-16.6720635545,-49.2340630665,|Avenida Anhanguera 2495, Goias|,,GYN
656150,10/03/2019 18:09:33,1570136932.96,,11531,,1,-16.6976166892,-49.2699037492,|Avenida Mutirao 2653, Goias|,-16.717573152,-49.2699319124,|Rua C-263 325, Goias|,FlexRequestAssignmentFailure,GYN
656146,10/03/2019 18:08:47,1570136923.34,,632,,1,-16.6653889559,-49.2632408068,|Rua 74 663, Goias|,-16.7124492035,-49.2472085729,|Avenida 2a Radial Q 48 507, Goias|,,GYN
656138,10/03/2019 18:08:37,1570136912.9,,45710,,1,-16.6735229998,-49.2591873184,|Travessa Delfino Machado Araujo, 0011000, Goiania|,-16.7147730919,-49.2604067177,|Rua S-5 - Setor Bela Vista, Goiania - GO|,,GYN
656132,10/03/2019 18:08:24,1570136899.91,,36980,,1,-16.704250664,-49.2405704409,|Drogasil - Rua 56 - Jardim Goias, Goiania - GO|,-16.6867814725,-49.2721950263,|Dog Center Clinica Veterinaria e Pet Shop - Avenida Assis Chateaubriand - Setor Oeste, Goiania - GO|,,GYN
656130,10/03/2019 18:08:20,1570136895.9,,45222,,1,-16.7052782704,-49.2407944053,|Avenida Deputado Jamel Cecilio, 2699, Goiania|,-16.6994288681,-49.2668356374,|Residencial Point Convenience - Rua 15 - Setor Marista, Goiania - GO|,,GYN
656126,10/03/2019 18:08:07,1570136883.02,,2362,,1,-16.7275608755,-49.2634473369,|Rua 1108 01, Goias|,-16.6784299173,-49.2378235236,|11a Avenida, 1075 - Setor Leste Universitario|,,GYN
656123,10/03/2019 18:08:05,1570136881.21,,50240,,1,-16.7142050472,-49.2545370385,|Avenida Circular, 287, Goiania|,-16.6809716498,-49.2600858584,|Alameda dos Buritis, 62 - Setor Central|,,GYN
656121,10/03/2019 18:08:05,1570136881.18,,49837,,1,-16.6970672196,-49.2545276508,|Avenida 136 897, Goias|,-16.669803705,-49.2487374321,|Rua 201 - Setor Leste Vila Nova, Goiania - GO|,,GYN
656117,10/03/2019 18:08:01,1570136877.55,,23405,,1,-16.7035965254,-49.2423571274,|Avenida Deputado Jamel Cecilio 1, Goias|,-16.6792916179,-49.2372917756,Toque aqui ou mova no mapa,,GYN
656109,10/03/2019 18:07:50,1570136863.66,,33,None,1,-16.691359,-49.264922,,-16.70058,-49.275962,,,GYN
656095,10/03/2019 18:07:31,1570136845.83,,54119,None,1,-16.6848320381,-49.2576839402,|Rua 94 997, Goias|,-16.7160532,-49.2929865,|Rua C-162 - Jardim America, Goiania - GO|,,GYN
656091,10/03/2019 18:07:24,1570136839.42,,23405,,1,-16.7035965254,-49.2423571274,|Avenida Deputado Jamel Cecilio 1, Goias|,-16.6792916179,-49.2372917756,Toque aqui ou mova no mapa,,GYN
656089,10/03/2019 18:07:21,1570136836.93,,5013,,1,-16.6973344078,-49.2645762116,|Avenida 85, 1750, Goiania|,-16.7153607226,-49.2374221981,|Avenida Sao Joao, 0013000, Goiania|,,GYN
656088,10/03/2019 18:07:21,1570136836.55,,51171,,1,-16.6686612438,-49.2700422183,|Rua 25 - A, 470, Goiania|,-16.7070691824,-49.2696506158,|Believer Ingles Com Vida - Avenida T-5 - Setor Bueno, Goiania - State of Goias|,,GYN
656086,10/03/2019 18:07:15,1570136831.19,,13419,,1,-16.6851570523,-49.2604308575,Localizacao marcada para embarque,-16.7237376348,-49.235576503,Toque aqui ou mova no mapa,,GYN
656079,10/03/2019 18:07:08,1570136823.57,,10358,,1,-16.6831970215,-49.2641792178,|Rua 6 Q C4, 145, Goiania|,-16.7079959415,-49.2729242519,|Goiania Shopping - Avenida T-10 - Setor Bueno, Goiania - GO|,,GYN
656078,10/03/2019 18:07:06,1570136821.45,,49870,,1,-16.683258024,-49.2650107294,|Hospital do Coracao de Goias - Rua 6 - Setor Oeste, Goiania - GO|,-16.6747492592,-49.2469138652,|Rua 229 220, Goias|,,GYN
656073,10/03/2019 18:06:59,1570136813.38,,34786,,1,-16.6754532789,-49.2468414456,|Rua 235, 0056000, Goiania|,-16.7085100565,-49.2660755664,|Rua T-59 - Setor Bueno, Goiania - GO|,,GYN
656072,10/03/2019 18:06:58,1570136813.32,,54063,,2,-16.724016024,-49.2610219494,|Avenida Quarta Radial, 0207000, Goiania|,-16.7081308126,-49.2840741947,|Avenida T9, 0529000, Goiania|,,GYN
656070,10/03/2019 18:06:51,1570136804.98,,39941,,1,-16.7081147565,-49.2727415264,|Goiania Shopping, Avenida T-010, Goiania|,-16.7125387943,-49.2882839218,|Praca C-111, 1, Goiania|,,GYN
656064,10/03/2019 18:06:34,1570136789.72,,39861,,1,-16.6839623335,-49.255450666,|Rua 84, 154, Goiania|,-16.7236197929,-49.235544987,|Avenida Nicolau Copernico, Goiania|,,GYN
656062,10/03/2019 18:06:28,1570136782.96,,10358,,1,-16.6831970215,-49.2641792178,|Rua 6 Q C4, 145, Goiania|,-16.7070422081,-49.270112291,|Avenida T-010, 15, Goiania|,,GYN
656060,10/03/2019 18:06:25,1570136780.86,,49709,,1,-16.6719704117,-49.2495306954,|Avenida Anhanguera 4124, Goias|,-16.6954746799,-49.2816276848,|Igreja Videira - Avenida T-7 - Setor Bueno, Goiania - GO|,,GYN
656059,10/03/2019 18:06:26,1570136780.22,,36769,,1,-16.6860749252,-49.2675266415,|Petzoo Goiania - Avenida Assis Chateaubriand - Setor Oeste, Goiania - GO|,-16.6726668,-49.2473065,|Rua 229-A - Setor Leste Universitario, Goiania - GO|,,GYN
656056,10/03/2019 18:06:23,1570136779.74,,48693,,2,-16.7085126254,-49.2356023192,|Avenida Dep Jamel Cecilio Q C22 3549, Goias|,-16.6749801856,-49.2483176664,|Rua 232 - Setor Leste Universitario, Goiania - State of Goias|,,GYN
656054,10/03/2019 18:06:23,1570136778.35,,48947,,1,-16.6758357994,-49.2615852132,|Avenida Anhanguera 5395, Goias|,-16.7171078696,-49.2742271349,|Avenida C 255 Q 601 476, Goias|,,GYN
656048,10/03/2019 18:06:06,1570136761.21,,50240,,1,-16.7142050472,-49.2545370385,|Avenida Circular, 287, Goiania|,-16.6809716498,-49.2600858584,|Alameda dos Buritis, 62 - Setor Central|,,GYN
656047,10/03/2019 18:06:05,1570136761.2,,49837,,1,-16.6970672196,-49.2545276508,|Avenida 136 897, Goias|,-16.669803705,-49.2487374321,|Rua 201 - Setor Leste Vila Nova, Goiania - GO|,,GYN
656044,10/03/2019 18:06:00,1570136754.78,,36469,,1,-16.688969183,-49.276924096,|Rua T 47 Q R26 348, Goias|,-16.7119238601,-49.2872110382,|Colegio Estadual Jardim America - Praca C-111 - Jardim America, Goiania - GO|,,GYN
656037,10/03/2019 18:05:37,1570136733.39,,4840,,1,-16.6860299631,-49.2470597103,|Rua 86 Q F34, 758, Goiania|,-16.6632584699,-49.2416356131,|Avenida Vereador Germino Alves, 0032000, Goiania|,,GYN
656023,10/03/2019 18:04:58,1570136693.38,,37462,None,1,-16.6973385826,-49.2556820065,|Avenida 136 761, Goias|,-16.7448963046,-49.282377027,|Avenida Rio Verde 2200, Goias|,,GYN
656013,10/03/2019 18:04:30,1570136667.17,,48547,,1,-16.7049587496,-49.2407618836,|Avenida Deputado Jamel Cecilio, 2699, Goiania|,-16.7445909768,-49.2815136909,|Avenida Rio Verde, Goiania|,,GYN
656010,10/03/2019 18:04:29,1570136662.58,,36469,,1,-16.688969183,-49.276924096,|Rua T 47 Q R26 348, Goias|,-16.711924,-49.287211,|Colegio Estadual Jardim America - Praca C-111 - Jardim America, Goiania - GO|,,GYN
656009,10/03/2019 18:04:24,1570136661.08,,36075,,1,-16.7325990107,-49.2865414917,|Avenida Dona Terezinha de Morais, 0135000, Goiania|,-16.6898651994,-49.258585833,|Universo Goiania - Rua 105-B - Setor Sul, Goiania - GO|,,GYN
656008,10/03/2019 18:04:26,1570136660.49,,44792,,1,-16.7102094197,-49.2373916879,|Unnamed Road, Goias|,-16.7105077,-49.2677698,|Buena Vista Shopping - Avenida T-4 - Setor Bueno, Goiania - GO|,,GYN
656007,10/03/2019 18:04:21,1570136657.33,,21923,,1,-16.7049985693,-49.2406924814,|Avenida Deputado Jamel Cecilio, 2699, Goiania|,-16.7246251395,-49.2621588707,|Rua 1108, 0206000, Goiania|,,GYN
656003,10/03/2019 18:04:05,1570136641.08,,49837,,1,-16.6970672196,-49.2545276508,|Avenida 136 897, Goias|,-16.669803705,-49.2487374321,|Rua 201 - Setor Leste Vila Nova, Goiania - GO|,,GYN
655997,10/03/2019 18:03:49,1570136624.45,,26258,,2,-16.7089699008,-49.2881172895,|Avenida T-9 2951, Goias|,-16.7023142531,-49.2397459969,|Rua 55 626, Goias|,,GYN
655994,10/03/2019 18:03:45,1570136619.74,,47911,None,1,-16.6907795171,-49.2559586093,|Rua 87 215, Goias|,-16.7358110694,-49.2735005915,|Rua Tuxaua 73, Goias|,,GYN
655993,10/03/2019 18:03:44,1570136619.72,,158,,1,-16.6732538512,-49.2690021917,|Avenida Republica Do Libano Q 30a 799, Goias|,-16.6777442154,-49.2462379485,|Avenida Universitaria Q 88 0, Goias|,,GYN
655989,10/03/2019 18:03:30,1570136606.82,,4840,,1,-16.6860299631,-49.2470597103,|Rua 86 Q F34, 758, Goiania|,-16.6632584699,-49.2416356131,|Avenida Vereador Germino Alves, 0032000, Goiania|,,GYN
655987,10/03/2019 18:03:24,1570136599.64,,51063,,4,-16.6927417366,-49.2761774361,|IBCD ODONTOLOGIA - Rua T-28 - Setor Bueno, Goiania - GO|,-16.7413447121,-49.2769083381,|Buriti Shopping, Avenida Rio Verde, Goiania|,,GYN
