Id,Last Update,Request,Ride Id,Rider Id,Rider Status,# pax,Origin Lat,Origin Lng,Origin Address,Destination Lat,Destination Lng,Destination Address,Err Statement,City
715238,10/11/2019 17:24:39,1570825474.02,,5516,,1,-16.6826998416,-49.255980067,|Posto Radial II - Rua 82 - Setor Sul, Goiania - GO|,-16.702091388,-49.2530095205,|Areiao Esportes - Rua 90 - Setor Marista, Goiania - GO|,,GYN
715237,10/11/2019 17:24:37,1570825473.13,,55382,,1,-16.6671211428,-49.2474633828,|11a Avenida 115, Goias|,-16.7139022,-49.2530349,|Terminal Isidoria - Praca Terminal Isidoria - Setor Pedro Ludovico, Goiania - GO|,,GYN
715235,10/11/2019 17:24:26,1570825461.72,,352,,1,-16.7170898877,-49.2627244815,|Rua S 2, 17, Goiania|,-16.7156898592,-49.2681244388,|Rua T-038, 14, Goiania|,,GYN
715234,10/11/2019 17:24:25,1570825461.08,,5750,,1,-16.68887926,-49.2652370408,|M2PORT Comercio Exterior - Rua Joao de Abreu - Setor Marista, Goiania - GO|,-16.7163333598,-49.2732162774,|Ed. Suica Park - Rua C-257 - Setor Nova Suica, Goiania - GO|,,GYN
715228,10/11/2019 17:24:15,1570825442.28,,5750,,1,-16.68887926,-49.2652370408,|M2PORT Comercio Exterior - Rua Joao de Abreu - Setor Marista, Goiania - GO|,-16.7163333598,-49.2732162774,|Ed. Suica Park - Rua C-257 - Setor Nova Suica, Goiania - GO|,FlexRequestAssignmentFailure,GYN
715220,10/11/2019 17:23:58,1570825433.72,,39203,,1,-16.6869712763,-49.2631040141,|West Office - Rua 3 - Setor Oeste, Goiania - State of Goias|,-16.7197608309,-49.2654730752,|Avenida T 14, 535, Goiania|,,GYN
715219,10/11/2019 17:23:55,1570825432.1,,12186,,1,-16.6624246413,-49.2514578626,|Rua Prof Joao H Goncalves Q67c 0, Goias|,-16.7188681659,-49.2619704455,|Colegio Prevest - Avenida T-13 - Setor Bela Vista, Goiania - GO|,,GYN
715218,10/11/2019 17:23:55,1570825431.38,,8999,,1,-16.6791156167,-49.2588701472,|Rua 16 148, Goias|,-16.6705144,-49.2557499,|Igreja Fonte da Vida - Av. Paranaiba - Centro, Goiania - GO|,,GYN
715216,10/11/2019 17:24:09,1570825430.31,,55370,,2,-16.6864937154,-49.2773133516,|Avenida Assis Chateaubriand, 0R13000, Goiania|,-16.7161538606,-49.2647653073,|Rua T 36, 2, Goiania|,FlexRequestAssignmentFailure,GYN
715215,10/11/2019 17:23:52,1570825428.48,,275,,1,-16.7082557287,-49.2368978262,|Flamboyant Shopping, Alameda das Paineiras, Goiania|,-16.692485461,-49.2707969248,|Avenida D, 774, Goiania|,,GYN
715214,10/11/2019 17:23:49,1570825426.78,,46735,,1,-16.7407475295,-49.2766991258,|Bretas Buriti Shopping - Avenida Rio Verde - Vila Sao Tomaz, Aparecida de Goiania - GO|,-16.7275313354,-49.2909242213,|Rua Maria Conceicao 117, Goias|,,GYN
715209,10/11/2019 17:23:38,1570825414.52,,37682,,1,-16.6985778559,-49.2591551319,|Avenida 136, 11, Goiania|,-16.7202164737,-49.235060513,|Rua Recife, Goiania|,,GYN
715207,10/11/2019 17:23:36,1570825411.91,,18835,,1,-16.6793950345,-49.2570385337,|Praca Doutor Pedro L Teixeira Q 1, 300, Goiania|,-16.6951291302,-49.2706433684,|Rua 27, 0L28000, Goiania|,,GYN
715206,10/11/2019 17:23:35,1570825411.19,,27824,,2,-16.6749223738,-49.2539117485,|Rua Vinte e Dois, Goiania|,-16.7094284595,-49.2418387905,|Avenida Sao Joao, 406, Goiania|,,GYN
715205,10/11/2019 17:23:33,1570825410.04,,29299,,1,-16.6742430829,-49.2521304265,|Rua 3 148, Goias|,-16.6720385023,-49.2349005863,|Avenida Anhanguera Q 114 2587, Goias|,,GYN
715196,10/11/2019 17:23:13,1570825388.83,,24616,,1,-16.6884951598,-49.2752802372,|Rua Ruy Brasil Cavalcante Qr27, 128, Goiania|,-16.6759591308,-49.2433435097,|Praca Universitaria, 0062000, Goiania|,,GYN
715195,10/11/2019 17:23:14,1570825387.98,,46540,,1,-16.7045942705,-49.2399920896,|Brookfield Tower - Jardim Goias, Goiania - GO|,-16.6951291,-49.2653353,|Shopping Bougainville - Rua 9 - Setor Marista, Goiania - GO|,,GYN
715194,10/11/2019 17:23:34,1570825387.71,,43441,,1,-16.6824923695,-49.2566750944,|Rua 82 421, Goias|,-16.7101919,-49.2372513,|Shopping Flamboyant - Avenida Deputado Jamel Cecilio - Jardim Goias, Goiania - GO|,FlexRequestAssignmentFailure,GYN
715193,10/11/2019 17:23:03,1570825378.71,,29299,,1,-16.6742430829,-49.2521304265,|Rua 3 148, Goias|,-16.6731173496,-49.236170277,|Rua 265 A Q 113 72, Goias|,,GYN
715189,10/11/2019 17:23:26,1570825377.02,,55090,None,1,-16.7037095627,-49.2422934249,|Avenida Deputado Jamel Cecilio 1, Goias|,-16.6752522224,-49.2577721179,|Avenida Goias 399, Goias|,,GYN
715188,10/11/2019 17:23:01,1570825376.45,,18835,,1,-16.6798677956,-49.2575391009,|Avenida Tocantins Q 15, 11, Goiania|,-16.6951291302,-49.2706433684,|Rua 27, 0L28000, Goiania|,,GYN
715187,10/11/2019 17:22:56,1570825372.1,,32017,None,1,-16.6808589201,-49.2562741041,|Rua 83 Qda 0 2, Goias|,-16.6835567055,-49.2611523718,|Avenida Assis Chateaubriand 195, Goias|,,GYN
715180,10/11/2019 17:22:59,1570825364.01,,2670,,1,-16.686809092,-49.2659773305,|Rua 7 886, Goias|,-16.6782930983,-49.245262295,|PUC-GO Area 3 - 1a Avenida - Setor Leste Universitario, Goiania - GO|,,GYN
715178,10/11/2019 17:22:43,1570825358.69,,38505,None,1,-16.7213351864,-49.2602826655,|Rua S-5 1182, Goias|,-16.7323822815,-49.2866041884,|Rua Dona Teresinha de Moraes 892, Goias|,,GYN
715174,10/11/2019 17:22:39,1570825355.16,,16708,None,1,-16.7141591283,-49.2665080726,|Avenida T-63 829, Goias|,-16.6605648951,-49.2466275394,|5a Avenida 1138, Goias|,,GYN
715168,10/11/2019 17:22:29,1570825346.39,,46735,,1,-16.7407478506,-49.2766977847,|Bretas Buriti Shopping - Avenida Rio Verde - Vila Sao Tomaz, Aparecida de Goiania - GO|,-16.7275313354,-49.2909242213,|Rua Maria Conceicao 117, Goias|,,GYN
715166,10/11/2019 17:22:27,1570825343.46,,27957,None,1,-16.7252795271,-49.2640209943,|Rua 1105 245, Goias|,-16.727977327,-49.2689006031,|Rua 1104 202, Goias|,,GYN
715164,10/11/2019 17:22:23,1570825339.44,,5365,,1,-16.7067451689,-49.2366792262,|Flamboyant Park Business - Rua 14 - Jardim Goias, Goiania - GO|,-16.7079961,-49.2729244,|Goiania Shopping - Avenida T-10 - Setor Bueno, Goiania - GO|,,GYN
715163,10/11/2019 17:22:23,1570825339.33,,52813,,1,-16.7172626428,-49.2902318761,|Rua C 159 Q 351, 3275, Goiania|,-16.7093953842,-49.2649309337,|Avenida T-036, 119B000, Goiania|,,GYN
715158,10/11/2019 17:22:18,1570825334.09,,26503,,1,-16.7280986982,-49.2763128877,|Rua Tambuqui Q 186 331, Goias|,-16.6910990616,-49.2826767638,|Faculdades Objetivo - Campus T2 - R. T. 44 Quadra 21 lote 10 - Setor Bueno, Goiania - GO|,,GYN
715156,10/11/2019 17:22:16,1570825332.0,,16068,,1,-16.685734497,-49.2595812678,|Gloria Bar - Rua 101 - Setor Sul, Goiania - GO|,-16.6927976163,-49.2719814554,|Escola Imaculada - Rua Rui Brasil Cavalcante - Setor Marista, Goiania - GO|,,GYN
715147,10/11/2019 17:22:01,1570825317.38,,865,,2,-16.6854750004,-49.2640927434,|Praca Almirante Tamandare 923, Goias|,-16.6712737665,-49.2365581915,|Rua Leopoldo De Bulhoes Q 923 41, Goias|,,GYN
715143,10/11/2019 17:21:58,1570825313.57,,45430,,1,-16.7122947476,-49.2847990617,|Rua C 136 Q 305 891, Goias|,-16.7075158642,-49.2705649137,|Avenida T-10 149, Goias|,,GYN
715140,10/11/2019 17:21:50,1570825305.45,,45927,,1,-16.7049189299,-49.2610903457,|Alameda Ricardo Paranhos Q 227 276, Goias|,-16.7284621692,-49.2632408068,|Avenida Transbrasiliana 207, Goias|,,GYN
715139,10/11/2019 17:21:49,1570825305.15,,50411,,1,-16.7047349242,-49.2731820792,|Rua T 53 Q 92 0, Goias|,-16.7334861531,-49.2860660702,|Residencial Amazonia Park I - Parque Amazonia, Goiania - GO|,,GYN
715134,10/11/2019 17:21:41,1570825297.64,,30373,,1,-16.6946053449,-49.2732903734,|Avenida T-8 418, Goias|,-16.736497526,-49.2693827301,|Rua Maraba 3, Goias|,,GYN
715130,10/11/2019 17:21:37,1570825293.0,,43130,,1,-16.7047349242,-49.2731820792,|Colegio Atrio - Rua T-53 - Setor Bueno, Goiania - GO|,-16.7334861531,-49.2860680819,|Residencial Amazonia Park I - Parque Amazonia, Goiania - GO|,,GYN
715127,10/11/2019 17:21:36,1570825292.03,,14699,,2,-16.678603992,-49.2665848508,|Avenida B, 140, Goiania|,-16.7118949598,-49.2384152859,|Rua Teresina, 0006000, Goiania|,,GYN
715126,10/11/2019 17:21:36,1570825291.49,,48547,,1,-16.7048980566,-49.2408641428,|Avenida Deputado Jamel Cecilio, 2699, Goiania|,-16.7070422081,-49.270112291,|Faculdade Araguaia - Unidade Bueno - Avenida T-10 - Setor Bueno, Goiania - GO|,,GYN
715125,10/11/2019 17:21:34,1570825289.78,,54250,,1,-16.6893420419,-49.2405603826,|Avenida Fued Jose Sebba, Goiania|,-16.7158176604,-49.2637993768,|Rua S 1, 376, Goiania|,,GYN
715120,10/11/2019 17:21:20,1570825277.5,,46735,,1,-16.7407478506,-49.2766977847,|Bretas Buriti Shopping - Avenida Rio Verde - Vila Sao Tomaz, Aparecida de Goiania - GO|,-16.7275313354,-49.2909242213,|Rua Maria Conceicao 117, Goias|,,GYN
715118,10/11/2019 17:21:16,1570825272.7,,41136,,1,-16.7076857379,-49.265345335,|Rua T-36 2448, Goias|,-16.718734908,-49.275422059,|Ingles Vip - Rua C-185 - Setor Nova Suica, Goiania - GO|,,GYN
715116,10/11/2019 17:21:16,1570825272.07,,632,,1,-16.7108083035,-49.2738804594,Localizacao marcada para embarque,-16.7127671062,-49.2472504824,Toque aqui ou mova no mapa,,GYN
715115,10/11/2019 17:21:13,1570825267.72,,37682,,1,-16.6961940381,-49.2601240799,|Rua 139 Q 56, 42, Goiania|,-16.7101079464,-49.2493228242,|Rua 1019 Q 54, 95, Goiania|,,GYN
715112,10/11/2019 17:21:09,1570825264.91,,6973,,1,-16.6784145011,-49.2705337331,|Avenida Anhanguera 6392, Goias|,-16.6709249611,-49.2413814738,|Rua 227 527, Goias|,,GYN
715111,10/11/2019 17:21:08,1570825263.95,,33607,,1,-16.6993479419,-49.2605596036,|Fran's Cafe - Setor Marista, Goiania - GO|,-16.6800688472,-49.2581214756,|Edificio Dijon - Praca Doutor Pedro Ludovico Teixeira - Setor Sul, Goiania - GO|,,GYN
715108,10/11/2019 17:21:02,1570825257.41,,43130,,1,-16.7047349242,-49.2731820792,|Colegio Atrio - Rua T-53 - Setor Bueno, Goiania - GO|,-16.7334861531,-49.2860680819,|Residencial Amazonia Park I - Parque Amazonia, Goiania - GO|,,GYN
715107,10/11/2019 17:21:00,1570825256.81,,29299,,1,-16.6742430829,-49.2521304265,|Rua 3 148, Goias|,-16.6725051792,-49.2347534001,|Rua 261 Q 111 0, Goias|,,GYN
715104,10/11/2019 17:20:55,1570825252.55,,8303,,1,-16.7192547738,-49.2373497784,0 R. Interna Qd25 0,-16.7065101063,-49.2634822056,|Rua 1122, 2, Goiania|,,GYN
715101,10/11/2019 17:20:51,1570825247.17,,14699,,1,-16.678603992,-49.2665848508,|Avenida B, 140, Goiania|,-16.7118949598,-49.2384152859,|Rua Teresina, 0006000, Goiania|,,GYN
715099,10/11/2019 17:20:48,1570825244.63,,7649,None,1,-16.7078581803,-49.2354588211,|Comfort Suites Flamboyant - Jardim Goias, Goiania - GO|,-16.7130268868,-49.2646355554,|Rua T-36, 3245 - Setor Bueno|,,GYN
715097,10/11/2019 17:20:42,1570825239.09,,52205,,1,-16.7019780285,-49.2370983213,|Rua 65 Qdc2 0 0, Goias|,-16.7402020369,-49.2831193283,|Residencial Amazon - Rua Canuma - Parque Amazonia, Goiania - GO|,,GYN
715096,10/11/2019 17:20:42,1570825238.69,,50411,,1,-16.7047349242,-49.2731820792,|Colegio Atrio - Rua T-53 - Setor Bueno, Goiania - GO|,-16.7334861531,-49.2860660702,|Residencial Amazonia Park I - Parque Amazonia, Goiania - GO|,,GYN
715094,10/11/2019 17:20:31,1570825227.76,,24426,,1,-16.6960039222,-49.2706286162,|Clima Rio - Ar Condicionado - Goiania - Avenida Mutirao - Setor Marista, Goiania - GO|,-16.6729500147,-49.2406150326,|Condominio Pontal dos Tocantins - Rua 236 - Setor Leste Universitario, Goiania - GO|,,GYN
715093,10/11/2019 17:20:32,1570825227.64,,37682,,1,-16.6961940381,-49.2601240799,|Rua 139 Q 56, 42, Goiania|,-16.7101079464,-49.2493228242,|Rua 1019 Q 54, 95, Goiania|,,GYN
715092,10/11/2019 17:20:32,1570825227.22,,50484,,1,-16.6900023312,-49.2752436921,|Avenida T-007, 8, Goiania|,-16.7076786732,-49.2752899602,|Avenida C-235, 13, Goiania|,,GYN
715091,10/11/2019 17:20:30,1570825226.56,,38817,,1,-16.7053986926,-49.2712555826,|Rua T-55 930, Goias|,-16.7413967,-49.2762864,|Buriti Shopping - Vila Sao Tomaz, Aparecida de Goiania - GO|,,GYN
715090,10/11/2019 17:20:30,1570825226.23,,21365,,1,-16.7027086017,-49.272800535,|Focus Business Center - Av. T-2 - Setor Bueno, Goiania - GO|,-16.6632941227,-49.2553303018,|Assai Supermercado - Av. Independencia - Setor Central, Goiania - GO|,,GYN
715087,10/11/2019 17:20:19,1570825216.15,,40077,None,1,-16.7110616645,-49.2676932737,|Rua T 61 Q 129 175, Goias|,-16.6925445522,-49.2360110208,|PUC Campus V - Jardim Goias, Goiania - GO|,,GYN
715085,10/11/2019 17:20:18,1570825214.5,,16690,,1,-16.676186844,-49.2447325587,|Praca Universitaria, 0062000, Goiania|,-16.7100459706,-49.2935648561,|Avenida T 9 Q 264, 3581, Goiania|,,GYN
715084,10/11/2019 17:20:14,1570825209.99,,48435,,1,-16.6760615857,-49.2448499054,|Faculdade de Odontologia UFG - Avenida Universitaria - Setor Leste Universitario, Goiania - State of Goias|,-16.7003961273,-49.2734187841,|Rua Orestes Ribeiro, 11, Goiania|,,GYN
715083,10/11/2019 17:20:13,1570825209.55,,8303,,1,-16.7192547738,-49.2373497784,0 R. Interna Qd25 0,-16.7065101063,-49.2634822056,|Rua 1122, 2, Goiania|,,GYN
715082,10/11/2019 17:20:12,1570825208.11,,34332,,1,-16.6732882174,-49.2462976277,|Rua 229-A 55, Goias|,-16.7002567549,-49.2641624808,|Avenida 85 1025, Goias|,,GYN
715081,10/11/2019 17:20:08,1570825202.89,,33607,,1,-16.6993479419,-49.2605596036,|Fran's Cafe - Setor Marista, Goiania - GO|,-16.6800688472,-49.2581214756,|Edificio Dijon - Praca Doutor Pedro Ludovico Teixeira - Setor Sul, Goiania - GO|,,GYN
715075,10/11/2019 17:20:03,1570825200.64,,55602,None,1,-16.7362862595,-49.2864073813,|Avenida Sao Luiz, 14, Goiania|,-16.7195090869,-49.2370654643,|unip - BR-153 - Vila Alto da Gloria, Goiania - GO|,,GYN
715073,10/11/2019 17:20:04,1570825200.2,,24426,,1,-16.6729500147,-49.2406150326,|Condominio Pontal dos Tocantins - Rua 236 - Setor Leste Universitario, Goiania - GO|,-16.7376864577,-49.2719184235,|Murdock Steak House - Avenida Alexandre de Morais - Parque Amazonia, Goiania - GO|,,GYN
715070,10/11/2019 17:19:59,1570825194.01,,33,None,1,-16.691359,-49.264922,,-16.70058,-49.275962,,,GYN
715069,10/11/2019 17:19:50,1570825185.12,,7236,,1,-16.6830627567,-49.2594012246,|Rua 101 Q F17a 156, Goias|,-16.6784132164,-49.2482308298,|Avenida Universitaria 670, Goias|,,GYN
715067,10/11/2019 17:19:45,1570825181.2,,52205,,1,-16.7020351899,-49.2370637879,|Rua 65 Qdc2 0 0, Goias|,-16.7402020369,-49.2831193283,|Residencial Amazon - Rua Canuma - Parque Amazonia, Goiania - GO|,,GYN
715065,10/11/2019 17:19:40,1570825177.57,,40077,None,1,-16.7110616645,-49.2676932737,|Rua T 61 Q 129 175, Goias|,-16.6925445522,-49.2360110208,|PUC Campus V - Jardim Goias, Goiania - GO|,,GYN
715064,10/11/2019 17:19:40,1570825176.17,,45430,,1,-16.7122485071,-49.2848107964,|Rua C 136 Q 305 891, Goias|,-16.7075158642,-49.2705649137,|Avenida T-10 149, Goias|,,GYN
715061,10/11/2019 17:19:27,1570825162.32,,16068,,1,-16.6827033744,-49.2576899752,|Atan Turismo - Avenida 85 - Setor Sul, Goiania - GO|,-16.6927976163,-49.2719814554,|Escola Imaculada - Rua Rui Brasil Cavalcante - Setor Marista, Goiania - GO|,,GYN
715060,10/11/2019 17:19:26,1570825162.24,,41136,,1,-16.7076857379,-49.265345335,|Rua T-36 2448, Goias|,-16.718734908,-49.275422059,|Ingles Vip - Rua C-185 - Setor Nova Suica, Goiania - GO|,,GYN
715059,10/11/2019 17:19:23,1570825159.01,,27824,,2,-16.6749120961,-49.2539117485,|Rua Vinte e Dois, Goiania|,-16.7092637253,-49.2418428138,|Avenida Sao Joao, 406, Goiania|,,GYN
715056,10/11/2019 17:19:19,1570825155.11,,48435,,1,-16.6760615857,-49.2448499054,|Faculdade de Odontologia UFG - Avenida Universitaria - Setor Leste Universitario, Goiania - State of Goias|,-16.7003961273,-49.2734187841,|Rua Orestes Ribeiro, 11, Goiania|,,GYN
715053,10/11/2019 17:19:09,1570825144.97,,54821,,1,-16.7074545298,-49.237026237,|Avenida Dep Jamel Cecilio Q Area 3160, Goias|,-16.7127542616,-49.2646415904,|Rua T-36 3229, Goias|,,GYN
715051,10/11/2019 17:19:00,1570825135.73,,40077,None,1,-16.7110616645,-49.2676932737,|Rua T 61 Q 129 175, Goias|,-16.6925445522,-49.2360110208,|PUC Campus V - Jardim Goias, Goiania - GO|,,GYN
715050,10/11/2019 17:18:56,1570825132.32,,52813,,1,-16.7172626428,-49.2902318761,|Rua C 159 Q 351, 3275, Goiania|,-16.7093953842,-49.2649309337,|Avenida T-036, 119B000, Goiania|,,GYN
715045,10/11/2019 17:18:43,1570825118.68,,41136,,1,-16.7076857379,-49.265345335,|Rua T-36 2448, Goias|,-16.718734908,-49.275422059,|Ingles Vip - Rua C-185 - Setor Nova Suica, Goiania - GO|,,GYN
715041,10/11/2019 17:18:29,1570825105.16,,46540,,1,-16.7045942705,-49.2399920896,|Brookfield Tower - Jardim Goias, Goiania - GO|,-16.711924,-49.287211,|Colegio Estadual Jardim America - Praca C-111 - Jardim America, Goiania - GO|,,GYN
715039,10/11/2019 17:18:23,1570825098.76,,6123,,1,-16.6757240303,-49.2631154135,|Supermercado Bretas - Avenida Anhanguera - Setor Central, Goiania - GO|,-16.7127240769,-49.2343366519,|Decathlon - Avenida I - Jardim Goias, Goiania - GO|,,GYN
715037,10/11/2019 17:18:15,1570825090.74,,7649,None,1,-16.7069651385,-49.2377031595,|McDonald's - Avenida Deputado Jamel Cecilio - Vila Maria Jose, Goiania - GO|,-16.7130268868,-49.2646355554,|Rua T-36, 3245 - Setor Bueno|,,GYN
715036,10/11/2019 17:18:12,1570825088.36,,55601,None,1,-16.6786178024,-49.2380488291,|11a Avenida 1029, Goias|,-16.7101919,-49.2372513,|Flamboyant Shopping Center - Avenida Deputado Jamel Cecilio - Jardim Goias, Goiania - GO|,,GYN
715033,10/11/2019 17:18:06,1570825081.32,,44920,,1,-16.6935735061,-49.2716032639,|Avenida T 8 Q L24 0, Goias|,-16.6925432676,-49.2360113561,|PUC Campus V - Jardim Goias, Goiania - GO|,,GYN
715032,10/11/2019 17:18:06,1570825081.26,,3131,,1,-16.699355328,-49.255864732,|Rua 1135, 13, Goiania|,-16.6916276737,-49.2612831295,|Rua 147, 75, Goiania|,,GYN
715031,10/11/2019 17:18:04,1570825079.42,,16068,,1,-16.6851840297,-49.2591360211,|Poliauto 85 - Avenida 85 - Setor Sul, Goiania - GO|,-16.6927976163,-49.2719814554,|Escola Imaculada - Rua Rui Brasil Cavalcante - Setor Marista, Goiania - GO|,,GYN
715028,10/11/2019 17:17:52,1570825067.68,,43499,,1,-16.7022786075,-49.2405432835,|Rua 54 Q B19, 551, Goiania|,-16.6895427624,-49.2396645248,|Rua 32, 23 - Jardim Goias|,,GYN
715024,10/11/2019 17:17:45,1570825060.4,,46540,,1,-16.7045942705,-49.2399920896,|Brookfield Tower - Jardim Goias, Goiania - GO|,-16.711924,-49.287211,|Colegio Estadual Jardim America - Praca C-111 - Jardim America, Goiania - GO|,,GYN
715023,10/11/2019 17:17:42,1570825058.79,,46646,,1,-16.6760708998,-49.2389731854,|Rua 225, 0081000, Goiania|,-16.7080942047,-49.2537310347,|Rua Senador Domingos Velasco, 0019000, Goiania|,,GYN
715021,10/11/2019 17:17:29,1570825045.63,,15181,,1,-16.7106628375,-49.2406311259,|Avenida Engenheiro Eurico Viana, 30, Goiania|,-16.7164752893,-49.2658801004,|Condominio Zolder - Rua T-37 - Setor Bueno, Goiania - GO|,,GYN
715019,10/11/2019 17:17:24,1570825040.56,,44017,,1,-16.7165218498,-49.2743625864,|Avenida C-255 370, Goias|,-16.7079962627,-49.2729225755,|Goiania Shopping - Avenida T-10 - Setor Bueno, Goiania - GO|,,GYN
715018,10/11/2019 17:17:13,1570825029.59,,16708,None,1,-16.7142265616,-49.2665811628,|Avenida T-63 841, Goias|,-16.6603342725,-49.2467301339,|5a Avenida 1180, Goias|,,GYN
715016,10/11/2019 17:17:05,1570825021.18,,55600,None,1,-16.7005936248,-49.2584165186,|Rua 1134 135, Goias|,-16.674762,-49.2420941,|PUC Goias Area I - Rua 235 - Setor Leste Universitario, Goiania - GO|,,GYN
715015,10/11/2019 17:17:04,1570825019.97,,43951,,2,-16.7079342862,-49.2729084939,|Avenida T-10 1300, Goias|,-16.7167360282,-49.269028008,|Avenida T-5 1093, Goias|,,GYN
715014,10/11/2019 17:16:51,1570825006.89,,43499,,1,-16.7022786075,-49.2405432835,|Rua 54 Q B19, 551, Goiania|,-16.6895427624,-49.2396645248,|Rua 32, 23 - Jardim Goias|,,GYN
715013,10/11/2019 17:16:38,1570824994.31,,51672,,1,-16.7078106543,-49.2730171233,|Goiania Shopping, Avenida T-010, Goiania|,-16.7166730913,-49.25653629,|Rua 1040, 0082000, Goiania|,,GYN
715012,10/11/2019 17:16:29,1570824985.97,,44028,,2,-16.7303629954,-49.2883399129,|Rua Niteroi, 3, Goiania|,-16.7173875529,-49.2636458203,|Rua S-1 - Serrinha, Goiania - State of Goias|,,GYN
715011,10/11/2019 17:16:29,1570824985.28,,6123,,1,-16.6773064569,-49.2648172751,|Rua 11, 250 - Setor Central|,-16.7127240769,-49.2343366519,|Decathlon - Avenida I - Jardim Goias, Goiania - GO|,,GYN
715010,10/11/2019 17:16:22,1570824977.77,,55600,None,1,-16.7005936248,-49.2584165186,|Rua 1134 135, Goias|,-16.674762,-49.2420941,|PUC Goias Area I - Rua 235 - Setor Leste Universitario, Goiania - GO|,,GYN
715009,10/11/2019 17:16:12,1570824968.78,,8303,,1,-16.7192547738,-49.2373497784,0 R. Interna Qd25 0,-16.7065101063,-49.2634822056,|Rua 1122, 2, Goiania|,,GYN
715007,10/11/2019 17:16:05,1570824961.38,,16708,None,1,-16.7130882194,-49.2668802291,|Avenida T-4 613, Goias|,-16.6605912336,-49.2466540262,|5a Avenida 1138, Goias|,,GYN
715002,10/11/2019 17:15:58,1570824953.88,,7649,None,1,-16.7063691327,-49.2380189896,|Emporio Saccaria - Avenida Deputado Jamel Cecilio - Jardim, Goiania - GO|,-16.7130268868,-49.2646355554,|Rua T-36, 3245 - Setor Bueno|,,GYN
715000,10/11/2019 17:15:44,1570824940.23,,42248,,6,-16.6627985156,-49.2567099631,|Rua 44 8, Goias|,-16.7039430232,-49.2483729869,|Rua 1006 Q 6 69, Goias|,,GYN
714995,10/11/2019 17:15:36,1570824931.84,,43499,,1,-16.7022786075,-49.2405432835,|Rua 54 Q B19, 551, Goiania|,-16.6895427624,-49.2396645248,|Rua 32, 23 - Jardim Goias|,,GYN
714992,10/11/2019 17:15:18,1570824914.46,,16708,None,1,-16.7130882194,-49.2668802291,|Avenida T-4 613, Goias|,-16.6605912336,-49.2466540262,|5a Avenida 1138, Goias|,,GYN
714991,10/11/2019 17:15:17,1570824914.19,,48947,,1,-16.6753228812,-49.2622219026,|Avenida Tocantins 663, Goias|,-16.7171078696,-49.2742271349,|Avenida C 255 Q 601 476, Goias|,,GYN
714984,10/11/2019 17:14:59,1570824895.99,,7785,,1,-16.7419329031,-49.2766924202,|Buriti Shopping, Rua Rio Verde, Goiania|,-16.6760879221,-49.2614293098,|Avenida Tocantins, 0067000, Goiania|,,GYN
714982,10/11/2019 17:14:55,1570824891.2,,45458,,1,-16.7049972848,-49.2412356287,|Avenida Deputado Jamel Cecilio 2690, Goias|,-16.7103921356,-49.28701289,|Avenida Brunsviga 450, Goias|,,GYN
714981,10/11/2019 17:14:55,1570824890.77,,43499,,1,-16.7022786075,-49.2405432835,|Rua 54 Q B19, 551, Goiania|,-16.6895427624,-49.2396645248,|Rua 32, 23 - Jardim Goias|,,GYN
714980,10/11/2019 17:14:50,1570824885.73,,32292,,1,-16.6825861495,-49.2560960725,|Rua 82 279, Goias|,-16.6899846679,-49.2387612909,|Avenida Fued Jose Sebba Q A23 915, Goias|,,GYN
714978,10/11/2019 17:14:35,1570824871.33,,275,,1,-16.7082711425,-49.2367905378,|Flamboyant Shopping, Alameda das Paineiras, Goiania|,-16.6877982536,-49.2705699429,|Avenida Portugal, 00K6000, Goiania|,,GYN
714977,10/11/2019 17:14:31,1570824866.12,,55487,None,2,-16.6931582641,-49.2375197634,|Rua 24 Q A13, 235, Goiania|,-16.7146202434,-49.2635113746,|Galeto's Grill - Rua S-1 - Setor Bela Vista, Goiania - GO|,,GYN
714975,10/11/2019 17:14:20,1570824856.33,,54289,,1,-16.6972403139,-49.2552947626,|Avenida 136 Q F43 0, Goias|,-16.6791715003,-49.2667578533,|Av. Republica do Libano, 1551 - Setor Oeste|,,GYN
714974,10/11/2019 17:14:19,1570824854.19,,7777,,1,-16.6901397842,-49.2692036927,|Rua 15 420, Goias|,-16.7169152058,-49.269248955,|Avenida T-5 1143, Goias|,,GYN
714966,10/11/2019 17:13:49,1570824825.75,,32292,,1,-16.6825678431,-49.2561510578,|Rua 82 279, Goias|,-16.6899846679,-49.2387612909,|Avenida Fued Jose Sebba Q A23 915, Goias|,,GYN
714965,10/11/2019 17:13:49,1570824824.97,,44339,,1,-16.6978305677,-49.2548944429,|Rua 135, 68, Goiania|,-16.7148263962,-49.2857961729,|Rua C 139 Q 338, 987, Goiania|,,GYN
714963,10/11/2019 17:14:01,1570824822.74,,54289,,1,-16.6972403139,-49.2552947626,|Avenida 136 Q F43 0, Goias|,-16.6791715003,-49.2667578533,|Av. Republica do Libano, 1551 - Setor Oeste|,FlexRequestAssignmentFailure,GYN
714962,10/11/2019 17:13:43,1570824819.41,,33,None,1,-16.691359,-49.264922,,-16.70058,-49.275962,,,GYN
714961,10/11/2019 17:13:42,1570824818.49,,40071,,1,-16.6818346236,-49.27065745,|Alameda das Rosas, 00G2000, Goiania|,-16.7189002762,-49.2828370258,|Avenida C-148, 4, Goiania|,,GYN
714959,10/11/2019 17:13:34,1570824810.5,,44339,,1,-16.6981028931,-49.2545618489,|Rua 135, 62, Goiania|,-16.7148263962,-49.2857961729,|Rua C 139 Q 338, 987, Goiania|,,GYN
714958,10/11/2019 17:13:29,1570824806.42,,14119,,1,-16.6934951465,-49.2707915604,|SICOOB Unicentro Brasileira - PA T8/ Sede - Setor Marista, Goiania - GO|,-16.6786968104,-49.2506850511,|Rua 10, 415 - Setor Central|,,GYN
714954,10/11/2019 17:13:20,1570824795.97,,52772,,1,-16.6912618845,-49.2671041936,|Avenida D 466, Goias|,-16.7167096975,-49.2812548578,|Rua C-165 728, Goias|,,GYN
714953,10/11/2019 17:13:15,1570824791.03,,16068,,1,-16.6819197324,-49.2559153587,|Palacio Pedro Ludovico Teixeira - Rua 82 - Setor Central, Goiania - GO|,-16.6916393,-49.2694522,|CONDOMINIO ART 5 - MARIA GUILHERMINA - Avenida D - Setor Oeste, Goiania - GO|,,GYN
714950,10/11/2019 17:13:11,1570824787.43,,54289,,1,-16.6972403139,-49.2552947626,|Avenida 136 Q F43 0, Goias|,-16.6792835886,-49.2667578533,|Av. Republica do Libano, 1551 - Setor Oeste|,,GYN
714948,10/11/2019 17:12:56,1570824771.78,,936,,1,-16.7040929901,-49.2406046391,|Avenida E 1077, Goias|,-16.692642181,-49.2471579462,|Rua 112 431, Goias|,,GYN
714946,10/11/2019 17:12:51,1570824766.91,,44339,,1,-16.6981028931,-49.2545618489,|Rua 135, 62, Goiania|,-16.7148263962,-49.2857961729,|Rua C 139 Q 338, 987, Goiania|,,GYN
714945,10/11/2019 17:12:49,1570824766.04,,55314,,1,-16.7171197505,-49.241626896,|Alameda Emilio Povoa 174, Goias|,-16.7367190666,-49.2670314386,|Rua Imbie 130, Goias|,,GYN
714942,10/11/2019 17:12:29,1570824745.83,,14119,,1,-16.6934951465,-49.2707915604,|SICOOB Unicentro Brasileira - PA T8/ Sede - Setor Marista, Goiania - GO|,-16.6786968104,-49.2506850511,|Rua 10, 415 - Setor Central|,,GYN
714941,10/11/2019 17:12:28,1570824743.5,,53105,,1,-16.6821670296,-49.2442283034,|Rua 222 Q 99 467, Goias|,-16.7038726961,-49.2403679341,|CNA - Pq Flamboyant - Jardim Goias, Goiania - State of Goias|,,GYN
714940,10/11/2019 17:12:24,1570824740.02,,52517,,1,-16.6924761477,-49.2707442865,|Extra Hiper - Avenida Portugal - Setor Marista, Goiania - GO|,-16.659633,-49.2561797,|Galeria Domanni Modas - Rua 69 - Setor Norte Ferroviario, Goiania - GO|,,GYN
714939,10/11/2019 17:12:20,1570824736.1,,16068,,1,-16.6819197324,-49.2559153587,|Palacio Pedro Ludovico Teixeira - Rua 82 - Setor Central, Goiania - GO|,-16.6927976163,-49.2719814554,|Escola Imaculada - Rua Rui Brasil Cavalcante - Setor Marista, Goiania - GO|,,GYN
714938,10/11/2019 17:12:14,1570824730.98,,43670,,1,-16.7081231056,-49.2730821669,|Avenida T-15 358, Goias|,-16.7157974306,-49.2895277962,|Rua C-158 - Jardim America, Goiania - GO|,,GYN
714934,10/11/2019 17:12:03,1570824720.25,,42181,,1,-16.6893532823,-49.2376609147,|Rua 32 Q A24 235, Goias|,-16.7245525724,-49.2362728715,|Avenida Nicolau Copernico 308, Goias|,,GYN
714932,10/11/2019 17:11:50,1570824706.3,,50755,,2,-16.6845484532,-49.24589362,|Rua 233 Q E, 1401, Goiania|,-16.6924655498,-49.2708740383,|Avenida D, 774, Goiania|,,GYN
714931,10/11/2019 17:11:49,1570824705.79,,44810,,1,-16.6966930912,-49.2697991431,|Edificio Orion - Avenida Mutirao - Setor Marista, Goiania - GO|,-16.6886505984,-49.2784526199,|Escola Crescer - Rua T-27 - Setor Bueno, Goiania - GO|,,GYN
714930,10/11/2019 17:11:45,1570824701.77,,16708,None,1,-16.7130307402,-49.2669258267,|Avenida T-4 613, Goias|,-16.6604537594,-49.2467167228,|5a Avenida 1119, Goias|,,GYN
714928,10/11/2019 17:11:39,1570824695.76,,242,,1,-16.6789971049,-49.2673854902,|Avenida Republica do Libano Q E1, 1510, Goiania|,-16.7141109616,-49.2688305303,|Avenida T 63, 0143000, Goiania|,,GYN
714926,10/11/2019 17:11:41,1570824695.55,,41043,,1,-16.6842305035,-49.2591256276,|Aviso Urgente - Rua 94 - Setor Sul, Goiania - GO|,-16.7158436702,-49.255749397,|Rua 1037 - Setor Pedro Ludovico, Goiania - GO|,,GYN
714924,10/11/2019 17:11:33,1570824689.76,,22512,None,1,-16.706636308,-49.2353230342,|Rua 70 661, Goias|,-16.6781023223,-49.2757569999,|Rua R 8 151, Goias|,,GYN
714922,10/11/2019 17:11:26,1570824683.6,,52517,,1,-16.7392121838,-49.271999225,|Rede Store - Av. Rio Verde - Avenida Rio Verde - Setor dos Afonsos, Goiania - GO|,-16.659633,-49.2561797,|Galeria Domanni Modas - Rua 69 - Setor Norte Ferroviario, Goiania - GO|,,GYN
714920,10/11/2019 17:11:25,1570824681.33,,50755,,2,-16.6845484532,-49.24589362,|Rua 233 Q E, 1401, Goiania|,-16.6926714054,-49.2702839524,|Avenida Portugal, 0I22000, Goiania|,,GYN
714919,10/11/2019 17:11:17,1570824672.64,,54289,,1,-16.6972441676,-49.2552870512,|Avenida 136 Q F43 0, Goias|,-16.6792835886,-49.2667578533,|Av. Republica do Libano, 1551 - Setor Oeste|,,GYN
714913,10/11/2019 17:10:51,1570824646.92,,16708,None,1,-16.7130307402,-49.2669258267,|Avenida T-4 613, Goias|,-16.6604537594,-49.2467167228,|5a Avenida 1119, Goias|,,GYN
714912,10/11/2019 17:10:45,1570824642.1,,11531,,1,-16.6963064375,-49.2705977708,|Avenida Mutirao 2383, Goias|,-16.717634162,-49.269920513,|Rua C-263 325, Goias|,,GYN
714911,10/11/2019 17:10:41,1570824636.86,,47190,,1,-16.6745938092,-49.272364676,|Senac Setor Aeroporto - Rua 31-A - Setor Aeroporto, Goiania - GO|,-16.7063134,-49.240556,|JK New Concept Business - Avenida E - Jardim Goias, Goiania - GO|,,GYN
714909,10/11/2019 17:10:39,1570824635.74,,43441,,1,-16.6816428876,-49.2580148578,|Praca Doutor Pedro Ludovico Teixeira 613, Goias|,-16.6792704,-49.2533616,|Catedral Metropolitana de Goiania - Praca Dom Emanuel - Setor Central, Goiania - GO|,,GYN
714907,10/11/2019 17:10:31,1570824626.77,,10950,,1,-16.7101400582,-49.2403317243,|Avenida Engenheiro Eurico Viana 354, Goias|,-16.6806508037,-49.254483059,|Rua 82 75, Goias|,,GYN
714905,10/11/2019 17:10:25,1570824621.28,,55314,,1,-16.7171197505,-49.241626896,|Alameda Emilio Povoa 174, Goias|,-16.7366574206,-49.266935885,|Avenida Rio Verde 1720, Goias|,,GYN
714903,10/11/2019 17:10:10,1570824606.88,,33607,,1,-16.6988135706,-49.2562365532,|Cafe Carino Cafeteria - Rua 1136 - Setor Marista, Goiania - GO|,-16.6800694896,-49.2581211403,|Edificio Dijon - Praca Doutor Pedro Ludovico Teixeira - Setor Sul, Goiania - GO|,,GYN
714902,10/11/2019 17:10:05,1570824601.82,,16708,None,1,-16.7130307402,-49.2669258267,|Avenida T-4 613, Goias|,-16.6604537594,-49.2467167228,|5a Avenida 1119, Goias|,,GYN
714901,10/11/2019 17:10:04,1570824601.06,,55472,,1,-16.6668291806,-49.2554489896,|Rua 66 Q 101, 577, Goiania|,-16.7209415184,-49.266443029,|Green LifeStyle Residencial Service - Avenida T-4 - Serrinha, Goiania - GO|,,GYN
714900,10/11/2019 17:10:05,1570824601.02,,46671,,1,-16.6817562592,-49.2556840181,|Rua 82 400, Goias|,-16.7069738089,-49.2697860673,|Avenida T-10 1031, Goias|,,GYN
714899,10/11/2019 17:10:04,1570824600.9,,24047,,1,-16.666101361,-49.2550429702,|IFG - Campus Goiania - Rua 75 - Centro, Goiania - GO|,-16.7133521741,-49.2610092089,|Rua S 4 Q S16 131, Goias|,,GYN
714898,10/11/2019 17:10:03,1570824600.38,,11527,,1,-16.7028659556,-49.2333529517,|Rua 72, 9, Goiania|,-16.672934598,-49.2342377454,|Rua Duzentos e Sessenta e Dois, 000C000, Goiania|,,GYN
714897,10/11/2019 17:10:26,1570824595.55,,46705,,1,-16.6665625921,-49.2627576739,|Rua 74 Q 129 522, Goias|,-16.7360194468,-49.2751732841,|Rua Tuxaua 0202, Goias|,FlexRequestAssignmentFailure,GYN
714896,10/11/2019 17:09:59,1570824595.53,,54289,,1,-16.6972393505,-49.25529778,|Avenida 136 Q F43 0, Goias|,-16.6792835886,-49.2667578533,|Av. Republica do Libano, 1551 - Setor Oeste|,,GYN
714895,10/11/2019 17:09:58,1570824595.1,,43460,,1,-16.718679036,-49.2403984442,|Rua 1081 288, Goias|,-16.7082823818,-49.2852781713,|Avenida C-208 510, Goias|,,GYN
714894,10/11/2019 17:09:57,1570824593.65,,40116,,1,-16.6909869802,-49.2670475319,|Avenida D 454, Goias|,-16.6783367776,-49.2404105142,|Rua 240 80, Goias|,,GYN
714893,10/11/2019 17:09:52,1570824587.6,,4363,,1,-16.684245277,-49.2667474598,|Rua 7 693, Goias|,-16.7135162626,-49.2741661146,|Della Panificadora - Praca Wilson Sales - Setor Nova Suica, Goiania - GO|,,GYN
714888,10/11/2019 17:09:31,1570824566.63,,47190,,1,-16.6745938092,-49.272364676,|Senac Setor Aeroporto - Rua 31-A - Setor Aeroporto, Goiania - GO|,-16.7063134,-49.240556,|JK New Concept Business - Avenida E - Jardim Goias, Goiania - GO|,,GYN
714887,10/11/2019 17:09:23,1570824560.05,,22512,None,1,-16.706636308,-49.2353230342,|Rua 70 661, Goias|,-16.6781023223,-49.2757569999,|Rua R 8 151, Goias|,,GYN
714885,10/11/2019 17:09:22,1570824557.91,,55471,None,1,-16.6777551353,-49.2459331825,|Avenida Univ Q 88, 930, Goiania|,-16.71269036,-49.2704924941,|Avenida T 15 Q 145, 1158, Goiania|,,GYN
714882,10/11/2019 17:09:05,1570824540.7,,14119,,1,-16.6934951465,-49.2707915604,|SICOOB Unicentro Brasileira - PA T8/ Sede - Setor Marista, Goiania - GO|,-16.6786968104,-49.2506850511,|Rua 10, 415 - Setor Central|,,GYN
714880,10/11/2019 17:08:59,1570824535.32,,44920,,1,-16.6935735061,-49.2716032639,|Avenida T 8 Q L24 0, Goias|,-16.6925432676,-49.2360113561,|PUC Campus V - Jardim Goias, Goiania - GO|,,GYN
714878,10/11/2019 17:08:56,1570824531.42,,41043,,1,-16.6842305035,-49.2591256276,|Aviso Urgente - Rua 94 - Setor Sul, Goiania - GO|,-16.7158436702,-49.255749397,|Rua 1037 - Setor Pedro Ludovico, Goiania - GO|,,GYN
714876,10/11/2019 17:08:47,1570824523.06,,44810,,1,-16.6966930912,-49.2697991431,|Edificio Orion - Avenida Mutirao - Setor Marista, Goiania - GO|,-16.6886505984,-49.2784526199,|Escola Crescer - Rua T-27 - Setor Bueno, Goiania - GO|,,GYN
714875,10/11/2019 17:08:45,1570824522.04,,22512,None,1,-16.706636308,-49.2353230342,|Rua 70 661, Goias|,-16.6781023223,-49.2757569999,|Rua R 8 151, Goias|,,GYN
714874,10/11/2019 17:08:44,1570824520.07,,26160,,2,-16.6964570527,-49.2370289192,|Rua 77, 2, Goiania|,-16.6898038593,-49.2546916008,|Clinica do Esporte - Rua 87 - Setor Sul, Goiania - GO|,,GYN
714869,10/11/2019 17:08:33,1570824507.86,,31332,,1,-16.6867602761,-49.2668021098,|Rua 10, 00F7000, Goiania|,-16.7005811006,-49.2532680184,|Rua 135 Q F43a, 419, Goiania|,,GYN
714868,10/11/2019 17:08:31,1570824507.03,,33607,,1,-16.6988135706,-49.2562365532,|Cafe Carino Cafeteria - Rua 1136 - Setor Marista, Goiania - GO|,-16.6800696,-49.2581212,|Edificio Dijon - Praca Doutor Pedro Ludovico Teixeira - Setor Sul, Goiania - GO|,,GYN
714867,10/11/2019 17:08:29,1570824505.31,,21100,None,1,-16.6896073141,-49.2742717266,|VISAGE OESTE - Rua Rui Brasil Cavalcante - Setor Oeste, Goiania - GO|,-16.7124245,-49.2412898,|Rua Coronel Serafim Agapito - Vila Maria Jose, Goiania - GO|,,GYN
714866,10/11/2019 17:08:28,1570824505.09,,50434,,2,-16.6722405257,-49.2452777177,|Rua 227 Q 66 95, Goias|,-16.7415036395,-49.2768600583,|Rua Pires do Rio 260, Goias|,,GYN
714862,10/11/2019 17:08:24,1570824500.39,,23405,,1,-16.7035197755,-49.2423742265,|Avenida Deputado Jamel Cecilio 1, Goias|,-16.6795344221,-49.2373041809,|Rua 242 1036, Goias|,,GYN
714859,10/11/2019 17:08:12,1570824488.05,,52772,,1,-16.6912618845,-49.2671041936,|Avenida D 466, Goias|,-16.7167096975,-49.2812548578,|Rua C-165 728, Goias|,,GYN
714851,10/11/2019 17:07:58,1570824476.1,,2362,,1,-16.7255781429,-49.2617944255,|Avenida 4a Radial 1690, Goias|,-16.6784299173,-49.2378235236,|11a Avenida, 1075 - Setor Leste Universitario|,,GYN
714849,10/11/2019 17:07:56,1570824472.28,,43460,,1,-16.7186639441,-49.2403645813,|Rua 1081 288, Goias|,-16.7082823818,-49.2852781713,|Avenida C-208 510, Goias|,,GYN
714848,10/11/2019 17:07:56,1570824471.68,,936,,1,-16.7040929901,-49.2406046391,|Avenida E 1077, Goias|,-16.692642181,-49.2471579462,|Rua 112 431, Goias|,,GYN
714844,10/11/2019 17:07:42,1570824458.91,,33,None,1,-16.691359,-49.264922,,-16.70058,-49.275962,,,GYN
714842,10/11/2019 17:07:41,1570824458.1,,2848,None,1,-16.6990884637,-49.2674807087,|Rua 15 1660, Goias|,-16.6862066001,-49.2788023129,|Praca Benedita da Silva Lobo 32, Goias|,,GYN
714841,10/11/2019 17:08:18,1570824456.82,,31332,,1,-16.6867602761,-49.2668021098,|Rua 10, 00F7000, Goiania|,-16.7005811006,-49.2532680184,|Rua 135 Q F43a, 419, Goiania|,FlexRequestAssignmentFailure,GYN
714838,10/11/2019 17:07:36,1570824452.31,,37214,,1,-16.7101634998,-49.2748437077,|Rua C-244 114, Goias|,-16.7140205,-49.2864265,|Rua C-145 - Jardim America, Goiania - GO|,,GYN
714837,10/11/2019 17:07:36,1570824452.16,,52772,,1,-16.6912618845,-49.2671041936,|Avenida D 466, Goias|,-16.7138457235,-49.2745258659,|Avenida T-63 1640, Goias|,,GYN
714833,10/11/2019 17:07:30,1570824446.37,,23405,,1,-16.7035197755,-49.2423742265,|Avenida Deputado Jamel Cecilio 1, Goias|,-16.6795344221,-49.2373041809,|Rua 242 1036, Goias|,,GYN
714830,10/11/2019 17:07:25,1570824441.6,,228,,1,-16.6976064128,-49.2724297196,|Rua T-028, 11, Goiania|,-16.7090810082,-49.2607346177,|Rua Mil Cento e Vinte e Um, 0217000, Goiania|,,GYN
714827,10/11/2019 17:07:20,1570824437.08,,4840,,1,-16.6864140682,-49.2464438081,|Rua 115 - A, 10, Goiania|,-16.6633484049,-49.2415179312,|Avenida Ver Germino Alves Q 32, 828, Goiania|,,GYN
714826,10/11/2019 17:07:19,1570824436.94,,55314,,1,-16.7187756881,-49.2423091829,|Alameda Emilio Povoa 343, Goias|,-16.7365790787,-49.2667863518,|Avenida Rio Verde 900, Goias|,,GYN
714813,10/11/2019 17:06:37,1570824394.03,,52772,,1,-16.6912618845,-49.2671041936,|Avenida D 466, Goias|,-16.7138457235,-49.2745258659,|Avenida T-63 1640, Goias|,,GYN
714811,10/11/2019 17:06:27,1570824383.98,,38664,None,1,-16.6884524463,-49.2374999821,|Rua 2 Q A18 326, Goias|,-16.7418905226,-49.2767752334,|Avenida Rio Verde 2050, Goias|,,GYN
714810,10/11/2019 17:06:26,1570824383.89,,55314,,1,-16.7197412437,-49.2386902124,|Rodovia Transbrasiliana 322, Goias|,-16.7366577416,-49.2669526488,|Avenida Rio Verde 1720, Goias|,,GYN
714809,10/11/2019 17:06:24,1570824381.1,,55483,None,1,-16.6867535318,-49.2548599094,|Rua 104, 587, Goiania|,-16.7461439374,-49.2842830718,|Avenida Graca Aranha, Goiania|,,GYN
714808,10/11/2019 17:06:18,1570824375.4,,43460,,1,-16.7187782569,-49.2404363304,|Rua 1081 288, Goias|,-16.7082823818,-49.2852781713,|Avenida C-208 510, Goias|,,GYN
714807,10/11/2019 17:06:12,1570824368.34,,46372,,1,-16.6756967303,-49.2548786849,|Banana Shopping - Avenida Araguaia - Centro, Goiania - GO|,-16.7201602811,-49.2647981644,|Borges Landeiro Athenas - Avenida T-14 - Setor Bueno, Goiania - GO|,,GYN
714800,10/11/2019 17:05:55,1570824351.94,,14981,,1,-16.6760005624,-49.2431517318,|Praca Universitaria, 0062000, Goiania|,-16.7113638348,-49.2465470731,|Condominio Residencial Quinta das Acacias - Rua 1012 - Setor Pedro Ludovico, Goiania - GO|,,GYN
714798,10/11/2019 17:05:53,1570824348.48,,34802,,1,-16.7147432287,-49.2667571828,|Avenida T-4 821, Goias|,-16.6987236522,-49.2653131485,|Cao Veio Goiania - Rua 9 - Setor Marista, Goiania - GO|,,GYN
714797,10/11/2019 17:05:46,1570824343.51,,55314,,1,-16.7197412437,-49.2386902124,|Rodovia Transbrasiliana 322, Goias|,-16.7366577416,-49.2669526488,|Avenida Rio Verde 1720, Goias|,,GYN
714795,10/11/2019 17:05:42,1570824339.35,,46661,,1,-16.6844193464,-49.2763216048,|Avenida R 11 133, Goias|,-16.6953658126,-49.2431031168,|Avenida A 223, Goias|,,GYN
714793,10/11/2019 17:05:36,1570824332.55,,52772,,1,-16.6912618845,-49.2671041936,|Avenida D 466, Goias|,-16.7167742399,-49.2805662006,|Rua C-152 779, Goias|,,GYN
714791,10/11/2019 17:05:25,1570824321.89,,8303,,1,-16.7192547738,-49.2373497784,0 R. Interna Qd25 0,-16.7065101063,-49.2634822056,|Rua 1122, 2, Goiania|,,GYN
714787,10/11/2019 17:05:12,1570824309.45,,55597,None,1,-16.7340294174,-49.2831528559,|Avenida Dona Maria Cardoso Q 119, 294, Goiania|,-16.6661007186,-49.2550419644,|IFG - Campus Goiania - Rua 75 - Centro, Goiania - GO|,,GYN
714784,10/11/2019 17:05:02,1570824299.21,,7314,None,1,-16.7062050382,-49.2363258451,111 R. 14-A,-16.7166030899,-49.2553155497,|Avenida Quarta Radial, 0088000, Goiania|,,GYN
714783,10/11/2019 17:05:02,1570824298.53,,38664,None,1,-16.6808589201,-49.2562741041,|Rua 83 Qda 0 2, Goias|,-16.7438502901,-49.2803197727,|Avenida Rio Verde 2466, Goias|,,GYN
714782,10/11/2019 17:04:59,1570824296.31,,46212,,1,-16.6791339234,-49.27562356,|Alameda das Rosas, Goiania|,-16.6806597964,-49.2432268336,|Avenida Decima Primeira Av Q 102a, 355, Goiania|,,GYN
714781,10/11/2019 17:04:58,1570824294.82,,29423,,1,-16.7111162543,-49.2341854423,|Academia Smart Fit - Flamboyant - Avenida Deputado Jamel Cecilio - Jardim Goias, Goiania - GO|,-16.6974179041,-49.2425204068,|Residencial Caraibas - Rua 54 - Jardim Goias, Goiania - GO|,,GYN
714780,10/11/2019 17:04:49,1570824286.03,,15767,,1,-16.6928207388,-49.2378667742,|Rua 24 Q A13, 191, Goiania|,-16.7038730172,-49.2403679341,|CNA - Pq Flamboyant - Jardim Goias, Goiania - GO|,,GYN
714779,10/11/2019 17:04:47,1570824283.6,,13041,,1,-16.6809321462,-49.2435047776,|Avenida Primeira Avenida Q 102a, 891, Goiania|,-16.6830518371,-49.2567022517,|Rua 98, 48, Goiania|,,GYN
714778,10/11/2019 17:04:46,1570824283.12,,55314,,1,-16.7170423639,-49.2416144907,|Alameda Emilio Povoa 174, Goias|,-16.7366972336,-49.266978465,|Rua Imbie 130, Goias|,,GYN
714776,10/11/2019 17:04:58,1570824274.15,,55157,None,1,-16.6793365816,-49.2572400346,|Praca Doutor Pedro L Teixeira Q 1, 300, Goiania|,-16.7258141454,-49.2618272826,|Avenida Quarta Radial, 0207000, Goiania|,,GYN
714774,10/11/2019 17:04:21,1570824258.22,,29766,,1,-16.6890446228,-49.2652691179,|Rua Joao de Abreu, 116, Goiania|,-16.715364897,-49.2566348612,|Rua Mil e Trinta e Seis, 2, Goiania|,,GYN
714772,10/11/2019 17:04:15,1570824251.99,,38389,,1,-16.6975286971,-49.2776891962,|Rua T-30 1411, Goias|,-16.6745937,-49.2723647,|Senac Setor Aeroporto - Rua 31-A - Setor Aeroporto, Goiania - GO|,,GYN
714769,10/11/2019 17:04:10,1570824246.18,,55314,,1,-16.7170423639,-49.2416144907,|Alameda Emilio Povoa 174, Goias|,-16.7366972336,-49.266978465,|Rua Imbie 130, Goias|,,GYN
714768,10/11/2019 17:04:04,1570824241.04,,24047,,1,-16.666101361,-49.2550429702,|IFG - Campus Goiania - Rua 75 - Centro, Goiania - GO|,-16.7133521741,-49.2610092089,|Rua S 4 Q S16 131, Goias|,,GYN
714765,10/11/2019 17:03:45,1570824222.23,,55157,None,1,-16.6793365816,-49.2572400346,|Praca Doutor Pedro L Teixeira Q 1, 300, Goiania|,-16.7258141454,-49.2618272826,|Avenida Quarta Radial, 0207000, Goiania|,,GYN
714763,10/11/2019 17:03:38,1570824214.82,,38389,,1,-16.6975286971,-49.2776891962,|Rua T-30 1411, Goias|,-16.6745937,-49.2723647,|Senac Setor Aeroporto - Rua 31-A - Setor Aeroporto, Goiania - GO|,,GYN
714761,10/11/2019 17:03:32,1570824209.4,,28791,,1,-16.690022885,-49.2752222344,|Avenida T-007, 8, Goiania|,-16.716068767,-49.2604311928,|Rua S-005, 4, Goiania|,,GYN
714758,10/11/2019 17:03:23,1570824200.73,,46705,,1,-16.6654066216,-49.2645336315,|Avenida Independencia 4511, Goias|,-16.7360191258,-49.2751732841,|Rua Tuxaua 0202, Goias|,,GYN
714757,10/11/2019 17:03:18,1570824195.19,,55401,None,4,-16.6867169198,-49.2545397207,|Rua 84 494, Goias|,-16.6925445522,-49.2360110208,|PUC Campus V - Jardim Goias, Goiania - GO|,,GYN
714756,10/11/2019 17:03:16,1570824192.35,,23345,,1,-16.6658553278,-49.2703282088,|Creche Santa Rita de Cassia - Setor Aeroporto, Goiania - GO|,-16.6720905338,-49.2456056178,|Unicom - Rua 227 - Setor Leste Universitario, Goiania - GO|,,GYN
714755,10/11/2019 17:03:15,1570824192.25,,54172,None,1,-16.6764816825,-49.2451808229,|Avenida Universitaria Q 88 0, Goias|,-16.745807148,-49.2854461446,|Terminal Cruzeiro - Avenida Rio Verde - Parque Amazonia, Aparecida de Goiania - GO|,,GYN
714753,10/11/2019 17:03:05,1570824182.05,,1451,None,2,-16.6735159338,-49.2573302239,|Rua 4 528, Goias|,-16.6925265679,-49.2375227809,|Rua 24 191, Goias|,,GYN
714752,10/11/2019 17:03:04,1570824180.87,,13627,,2,-16.6876331796,-49.2817275971,|Avenida T-1 15, Goias|,-16.6837497241,-49.2671551555,|Rua 6 Q F3 460, Goias|,,GYN
714750,10/11/2019 17:03:00,1570824177.92,,45217,,2,-16.672336559,-49.2449799925,|Rua 227, 0068000, Goiania|,-16.7408554078,-49.2760372907,|Buriti Shopping, Avenida Jose Leandro da Cruz, Goiania|,,GYN
714749,10/11/2019 17:03:00,1570824176.65,,38389,,1,-16.6975286971,-49.2776891962,|Rua T-30 1411, Goias|,-16.6745937,-49.2723647,|Senac Setor Aeroporto - Rua 31-A - Setor Aeroporto, Goiania - GO|,,GYN
714746,10/11/2019 17:02:48,1570824165.25,,55439,None,3,-16.7164557017,-49.2868231237,|Avenida T-63 2964, Goias|,-16.7124671859,-49.2410582677,|Rua Cel Serafim Agapito Q 8 0, Goias|,,GYN
714745,10/11/2019 17:02:48,1570824164.09,,51171,,1,-16.7070030311,-49.2695792019,|Avenida T5, Goiania|,-16.6686557837,-49.2702651769,|Rua 25 - A, 061A000, Goiania|,,GYN
714744,10/11/2019 17:02:46,1570824163.4,,4473,None,1,-16.7161747326,-49.2862692475,|Caldos 24 horas - Avenida T-63 - Jardim America, Goiania - GO|,-16.6897447673,-49.2529253662,|Praca do Cruzeiro - Setor Sul, Goiania - GO|,,GYN
714742,10/11/2019 17:02:37,1570824154.05,,13627,,2,-16.6876331796,-49.2817275971,|Avenida T-1 15, Goias|,-16.6837567897,-49.2671551555,|Rua 6 Q F3 460, Goias|,,GYN
714741,10/11/2019 17:02:35,1570824152.97,,46705,,1,-16.6654066216,-49.2645336315,|Avenida Independencia 4511, Goias|,-16.7360191258,-49.2751732841,|Rua Tuxaua 0202, Goias|,,GYN
714739,10/11/2019 17:02:32,1570824149.44,,23604,,1,-16.6988716964,-49.2762451619,|Rua T-50 900, Goias|,-16.6924761477,-49.2707442865,|Extra Hiper - Avenida Portugal - Setor Marista, Goiania - GO|,,GYN
714738,10/11/2019 17:02:29,1570824146.29,,6808,,1,-16.6810301022,-49.2522420734,|Rua 94 188, Goias|,-16.6637746323,-49.266288802,|Avenida Oeste 1287, Goias|,,GYN
714737,10/11/2019 17:02:27,1570824143.98,,20305,,1,-16.6849707794,-49.2607728392,|Forum Heitor Moraes Fleury - Rua 10 - Setor Oeste, Goiania - GO|,-16.7413967247,-49.2762864009,|Buriti Shopping - Vila Sao Tomaz, Aparecida de Goiania - GO|,,GYN
714735,10/11/2019 17:02:26,1570824142.91,,15767,,1,-16.6928207388,-49.2378667742,|Rua 24 Q A13, 191, Goiania|,-16.7038730172,-49.2403679341,|CNA - Pq Flamboyant - Jardim Goias, Goiania - GO|,,GYN
714734,10/11/2019 17:02:24,1570824141.51,,51918,,2,-16.7175741153,-49.2416322604,|Alameda Emilio Povoa 235, Goias|,-16.6741409481,-49.2338397726,|Avenida Universitaria Q G 2386, Goias|,,GYN
714733,10/11/2019 17:02:23,1570824140.69,,48435,,1,-16.6760615857,-49.2448499054,|Faculdade de Odontologia UFG - Avenida Universitaria - Setor Leste Universitario, Goiania - State of Goias|,-16.7003961273,-49.2734187841,|Residencial Aroeiras - Rua T-52 - Setor Bueno, Goiania - State of Goias|,,GYN
714732,10/11/2019 17:02:22,1570824139.9,,52511,None,1,-16.7107321988,-49.2364532501,|Flamboyant Shopping, Alameda das Paineiras Qdb34 0, Goiania|,-16.6740490911,-49.2516580224,|Base Ambiente - Rua 3 - Setor Central, Goiania - GO|,,GYN
714729,10/11/2019 17:02:20,1570824136.64,,45217,,2,-16.672336559,-49.2449799925,|Rua 227, 0068000, Goiania|,-16.7408554078,-49.2760372907,|Buriti Shopping, Avenida Jose Leandro da Cruz, Goiania|,,GYN
714727,10/11/2019 17:02:29,1570824133.84,,13041,,1,-16.6809321462,-49.2435047776,|Avenida Primeira Avenida Q 102a, 891, Goiania|,-16.6830518371,-49.2567022517,|Corpo e Mente - Clinica Integrada - Avenida Cora Coralina - Setor Sul, Goiania - GO|,,GYN
714726,10/11/2019 17:02:14,1570824131.73,,54172,None,1,-16.6775553659,-49.2461672053,|Avenida Universitaria Q 88 0, Goias|,-16.7459121339,-49.2852436379,|Rua Coronel Virgilio Rosa 413, Goias|,,GYN
714722,10/11/2019 17:02:05,1570824122.06,,55401,None,4,-16.6867169198,-49.2545397207,|Rua 84 494, Goias|,-16.6925445522,-49.2360110208,|PUC Campus V - Jardim Goias, Goiania - GO|,,GYN
714719,10/11/2019 17:02:04,1570824121.47,,24047,,1,-16.666101361,-49.2550429702,|IFG - Campus Goiania - Rua 75 - Centro, Goiania - GO|,-16.7133521741,-49.2610092089,|Rua S 4 Q S16 131, Goias|,,GYN
714718,10/11/2019 17:01:58,1570824116.14,,5365,,1,-16.7067451689,-49.2366792262,|Flamboyant Park Business - Rua 14 - Jardim Goias, Goiania - GO|,-16.7079961,-49.2729244,|Goiania Shopping - Avenida T-10 - Setor Bueno, Goiania - GO|,,GYN
714715,10/11/2019 17:01:51,1570824108.61,,54172,None,1,-16.6775553659,-49.2461672053,|Avenida Universitaria Q 88 0, Goias|,-16.7459121339,-49.2852436379,|Rua Coronel Virgilio Rosa 413, Goias|,,GYN
714714,10/11/2019 17:01:50,1570824107.16,,33,None,1,-16.691359,-49.264922,,-16.70058,-49.275962,,,GYN
714713,10/11/2019 17:01:41,1570824098.66,,51426,None,1,-16.7206836751,-49.2591289803,|Avenida 4a Radial 1063, Goias|,-16.6849492617,-49.2479800433,|Rua 83 797, Goias|,,GYN
714712,10/11/2019 17:01:37,1570824094.15,,23345,,1,-16.6658553278,-49.2703282088,|Creche Santa Rita de Cassia - Setor Aeroporto, Goiania - GO|,-16.6720905338,-49.2456056178,|Unicom - Rua 227 - Setor Leste Universitario, Goiania - GO|,,GYN
714711,10/11/2019 17:01:36,1570824092.2,,37469,,1,-16.6966924489,-49.2692777887,|Avenida Portugal 1175, Goias|,-16.7178746698,-49.2699392885,|Avenida T-15 1720, Goias|,,GYN
714710,10/11/2019 17:01:39,1570824090.16,,13041,,1,-16.6809321462,-49.2435047776,|Avenida Primeira Avenida Q 102a, 891, Goiania|,-16.6830518371,-49.2567022517,|Corpo e Mente - Clinica Integrada - Avenida Cora Coralina - Setor Sul, Goiania - GO|,,GYN
714709,10/11/2019 17:01:33,1570824090.04,,23604,,1,-16.6988716964,-49.2762451619,|Matiz Arte Clube - Setor Bueno, Goiania - GO|,-16.7105077,-49.2677698,|Buena Vista Shopping - Avenida T-4 - Setor Bueno, Goiania - GO|,,GYN
714708,10/11/2019 17:01:33,1570824088.89,,13627,,1,-16.6869998593,-49.2838978395,|Rua T-41 10, Goias|,-16.685746701,-49.2597331479,|Rua 101 447, Goias|,,GYN
714707,10/11/2019 17:01:30,1570824086.91,,47815,,1,-16.7039459134,-49.2660457268,|Avenida T-010, 0110000, Goiania|,-16.7079959415,-49.2729242519,|Goiania Shopping - Avenida T-10 - Setor Bueno, Goiania - GO|,,GYN
714706,10/11/2019 17:01:26,1570824083.97,,52511,None,1,-16.7107321988,-49.2364532501,|Flamboyant Shopping, Alameda das Paineiras Qdb34 0, Goiania|,-16.6806193293,-49.2563374713,|Praca Doutor Pedro Ludovico Teixeira, Goiania|,,GYN
714705,10/11/2019 17:01:20,1570824077.8,,6808,,1,-16.6810301022,-49.2522420734,|Rua 94 188, Goias|,-16.6637746323,-49.266288802,|Avenida Oeste 1287, Goias|,,GYN
714703,10/11/2019 17:01:38,1570824073.65,,45543,,1,-16.7149558035,-49.2625836655,|Rua S 2, 16, Goiania|,-16.6878168806,-49.2642231658,|Cafe S/A Cafeteria - Setor Oeste, Goiania - GO|,,GYN
714701,10/11/2019 17:01:13,1570824070.29,,3131,,1,-16.699355328,-49.255864732,|Rua 1135, 13, Goiania|,-16.6916276737,-49.2612831295,|Rua 147, 75, Goiania|,,GYN
714700,10/11/2019 17:01:13,1570824070.08,,55549,None,1,-16.6828372998,-49.2594273761,|Rua 101 123, Goias|,-16.689560747,-49.2697511986,|Rua Joao de Abreu - Setor Oeste, Goiania - GO|,,GYN
714697,10/11/2019 17:01:02,1570824059.57,,51426,None,1,-16.7206836751,-49.2591289803,|Avenida 4a Radial 1063, Goias|,-16.6849492617,-49.2479800433,|Rua 83 797, Goias|,,GYN
714694,10/11/2019 17:00:52,1570824048.73,,54289,,1,-16.6972393505,-49.2552974448,|Avenida 136 Q F43 0, Goias|,-16.6792835886,-49.2667578533,|Av. Republica do Libano, 1551 - Setor Oeste|,,GYN
714692,10/11/2019 17:00:47,1570824044.19,,55595,None,1,-16.7191995442,-49.2426075786,|Avenida Gonzaga Jaime 15, Goias|,-16.6990618,-49.2341521,|Serra Dourada - Avenida Fued Jose Sebba - Jardim Goias, Goiania - GO|,,GYN
714691,10/11/2019 17:00:47,1570824043.51,,37469,,1,-16.6966924489,-49.2692777887,|Avenida Portugal 1175, Goias|,-16.7178746698,-49.2699392885,|Avenida T-15 1720, Goias|,,GYN
714689,10/11/2019 17:00:44,1570824041.99,,13627,,2,-16.6869998593,-49.2838978395,|Rua T-41 10, Goias|,-16.684595985,-49.2664379999,|Rua 8 448, Goias|,,GYN
714687,10/11/2019 17:00:39,1570824036.62,,23345,,1,-16.6658553278,-49.2703282088,|Creche Santa Rita de Cassia - Setor Aeroporto, Goiania - GO|,-16.6720905338,-49.2456056178,|Unicom - Rua 227 - Setor Leste Universitario, Goiania - GO|,,GYN
714686,10/11/2019 17:00:40,1570824036.59,,53739,None,4,-16.6927863761,-49.2761569843,|Rua T-28 703, Goias|,-16.7413967247,-49.2762864009,|Buriti Shopping - Vila Sao Tomaz, Aparecida de Goiania - GO|,,GYN
714685,10/11/2019 17:00:37,1570824034.16,,22022,,1,-16.6951121096,-49.2594763264,|Rua 148 485, Goias|,-16.6746285,-49.2530628,|Rua 20 - Setor Central, Goiania - GO|,,GYN
714684,10/11/2019 17:00:37,1570824033.96,,45543,,1,-16.7146147845,-49.2627771199,|Rua S 2, 21, Goiania|,-16.6878168806,-49.2642231658,|Cafe S/A Cafeteria - Setor Oeste, Goiania - GO|,,GYN
714683,10/11/2019 17:00:35,1570824032.23,,665,,1,-16.7042153399,-49.2616609856,|Rua 1130 424, Goias|,-16.7101917582,-49.2372512072,|Flamboyant Shopping Center - Avenida Deputado Jamel Cecilio - Jardim Goias, Goiania - GO|,,GYN
714680,10/11/2019 17:00:32,1570824029.08,,54289,,1,-16.6972393505,-49.2552974448,|Avenida 136 Q F43 0, Goias|,-16.6792835886,-49.2667578533,|Av. Republica do Libano, 1551 - Setor Oeste|,,GYN
714679,10/11/2019 17:00:21,1570824018.38,,20305,,1,-16.6849707794,-49.2607728392,|Forum Heitor Moraes Fleury - Rua 10 - Setor Oeste, Goiania - GO|,-16.7413967247,-49.2762864009,|Buriti Shopping - Vila Sao Tomaz, Aparecida de Goiania - GO|,,GYN
714677,10/11/2019 17:00:30,1570824017.51,,46212,,1,-16.6791865953,-49.2756426707,|Alameda das Rosas, Goiania|,-16.6806597964,-49.2432268336,|Avenida Decima Primeira Av Q 102a, 355, Goiania|,FlexRequestAssignmentFailure,GYN
714676,10/11/2019 17:00:21,1570824016.68,,55549,None,1,-16.6828372998,-49.2594273761,|Rua 101 123, Goias|,-16.689560747,-49.2697511986,|Rua Joao de Abreu - Setor Oeste, Goiania - GO|,,GYN
714675,10/11/2019 17:00:18,1570824015.69,,15767,,1,-16.6928207388,-49.2378667742,|Rua 24 Q A13, 191, Goiania|,-16.7038730172,-49.2403679341,|CNA - Pq Flamboyant - Jardim Goias, Goiania - GO|,,GYN
714674,10/11/2019 17:00:11,1570824008.52,,21178,,1,-16.6827541183,-49.2656303197,|Avenida Republica do Libano 1945, Goias|,-16.6898388649,-49.2383462191,|Rua 32 915, Goias|,,GYN
714673,10/11/2019 17:00:09,1570824006.89,,44077,,1,-16.7197614731,-49.2387133464,|Rodovia BR-153 - Pista Lateral, Goiania|,-16.7365919216,-49.2668054625,|Avenida Rio Verde, Goiania|,,GYN
714671,10/11/2019 17:00:09,1570824005.06,,55314,,1,-16.7149532346,-49.2417325079,|Avenida 2a Radial 1861, Goias|,-16.736694344,-49.2669982463,|Rua Imbie 130, Goias|,,GYN
714670,10/11/2019 17:00:05,1570824002.75,,54289,,1,-16.6972393505,-49.2552974448,|Avenida 136 Q F43 0, Goias|,-16.6792835886,-49.2667578533,|Av. Republica do Libano, 1551 - Setor Oeste|,,GYN
714669,10/11/2019 17:00:05,1570824002.55,,10197,,1,-16.698877798,-49.2735361308,|Rua T 51 Q T22 0, Goias|,-16.6723911599,-49.2417385429,|Edificio Oxagrian - Rua 226 - Setor Leste Universitario, Goiania - GO|,,GYN
714667,10/11/2019 17:00:04,1570824001.36,,24047,,1,-16.666101361,-49.2550429702,|IFG - Campus Goiania - Rua 75 - Centro, Goiania - GO|,-16.7133521741,-49.2610092089,|Rua S 4 Q S16 131, Goias|,,GYN
714658,10/11/2019 16:59:53,1570823991.07,,51426,None,1,-16.7206836751,-49.2591289803,|Avenida 4a Radial 1063, Goias|,-16.6849492617,-49.2479800433,|Rua 83 797, Goias|,,GYN
714656,10/11/2019 16:59:51,1570823988.46,,19218,None,1,-16.7327415702,-49.2850934342,|Jardim Atlantico, Goiania - GO|,-16.6983774661,-49.2641678452,|Crool Centro Odontologico - Avenida 85 - Setor Marista, Goiania - GO|,,GYN
714655,10/11/2019 16:59:49,1570823987.05,,31161,,1,-16.681907207,-49.254850857,|Fundacao Nacional da Saude em Goias - Setor Sul, Goiania - GO|,-16.710079688,-49.2585422471,|Avenida Edmundo Pinheiro de Abreu 353, Goias|,,GYN
714654,10/11/2019 16:59:48,1570823986.36,,23186,,1,-16.6984933968,-49.2641581222,|Avenida 85, 1929, Goiania|,-16.6759449991,-49.243427664,|Praca Universitaria, 0062000, Goiania|,,GYN
714646,10/11/2019 16:59:35,1570823973.69,,55579,None,1,-16.7099229823,-49.2617810145,|Avenida Edmundo P Abreu Q 216a 854, Goias|,-16.6847212377,-49.247145541,|Rua 91 736, Goias|,,GYN
714644,10/11/2019 16:59:32,1570823970.31,,43315,,1,-16.6933955913,-49.2675833032,|Rua 13 778, Goias|,-16.7220422453,-49.2825875804,|Avenida C-177 2, Goias|,,GYN
714641,10/11/2019 16:59:30,1570823968.36,,27986,,1,-16.6771535784,-49.2471908033,|Rua 239 164, Goias|,-16.7447739809,-49.2817879468,|Avenida Sao Joao 3, Goias|,,GYN
714634,10/11/2019 16:59:20,1570823958.21,,49328,None,1,-16.7195726651,-49.2670042813,|Avenida T-4 1370, Goias|,-16.6669929878,-49.2673348635,|Rua D. Francisca da C. Cunha D. Tita 896, Goias|,,GYN
714632,10/11/2019 16:59:19,1570823957.86,,25990,,1,-16.6973199565,-49.2557131872,|Rua 136-D 43, Goias|,-16.7192628014,-49.2680848762,|Avenida T-13 127, Goias|,,GYN
714622,10/11/2019 16:58:52,1570823930.62,,46372,,1,-16.6765218293,-49.2551777512,|Odonto Maia Odontologia Especializada - Avenida Araguaia - Centro, Goiania - GO|,-16.7201602811,-49.2647981644,|Borges Landeiro Athenas - Avenida T-14 - Setor Bueno, Goiania - GO|,,GYN
714620,10/11/2019 16:58:50,1570823928.22,,13627,,2,-16.6876351065,-49.2817510664,|Avenida T-1 15, Goias|,-16.684595985,-49.2664379999,|Rua 8 448, Goias|,,GYN
714606,10/11/2019 16:58:16,1570823893.75,,46372,,1,-16.6765218293,-49.2551777512,|Odonto Maia Odontologia Especializada - Avenida Araguaia - Centro, Goiania - GO|,-16.7201602811,-49.2647981644,|Borges Landeiro Athenas - Avenida T-14 - Setor Bueno, Goiania - GO|,,GYN
714604,10/11/2019 16:58:14,1570823892.56,,41380,,1,-16.710327591,-49.2628341168,721 Avenida Edmundo P. de Abreu,-16.7347621154,-49.2867641151,|Rua Maceio, 12, Goiania|,,GYN
714602,10/11/2019 16:58:06,1570823884.59,,55586,None,1,-16.7099300469,-49.2640830204,|Avenida 85 Q 215, 3202, Goiania|,-16.7196863353,-49.278912954,|Bar Do Ze - Jardim America, Goiania - GO|,,GYN
714595,10/11/2019 16:57:59,1570823876.8,,50411,,1,-16.7047349242,-49.2731820792,|Colegio Atrio - Rua T-53 - Setor Bueno, Goiania - GO|,-16.7334861531,-49.2860660702,|Residencial Amazonia Park I - Parque Amazonia, Goiania - GO|,,GYN
714593,10/11/2019 16:57:58,1570823875.73,,53907,None,1,-16.6838502479,-49.2652437463,|Praca Dr Alfredo A L Morais Q D4 2079, Goias|,-16.7445656131,-49.2820712551,|Avenida Sao Joao 3, Goias|,,GYN
714588,10/11/2019 16:57:50,1570823868.2,,8610,,1,-16.7130201435,-49.2768845335,|Rua C 252 Q 567 146, Goias|,-16.7381147667,-49.2696482688,|Avenida T-63 2447, Goias|,,GYN
714573,10/11/2019 16:57:29,1570823847.36,,54172,None,1,-16.6775553659,-49.2461672053,|Avenida Universitaria Q 88 0, Goias|,-16.7459121339,-49.2852436379,|Rua Coronel Virgilio Rosa 413, Goias|,,GYN
714570,10/11/2019 16:57:27,1570823845.14,,55521,None,1,-16.6845526283,-49.2610018328,|Tribunal de Justica do Estado de Goias - Avenida Assis Chateaubriand - Setor Oeste, Goiania - GO|,-16.7007580453,-49.2664219067,|Boteco Posto15 - Rua 15 - Setor Marista, Goiania - GO|,,GYN
714555,10/11/2019 16:56:57,1570823815.44,,53998,,1,-16.6839543044,-49.2535094172,|Rua 94 30, Goias|,-16.7067458112,-49.2366772145,|Flamboyant Park Business - Rua 14 - Jardim Goias, Goiania - GO|,,GYN
714551,10/11/2019 16:56:52,1570823809.94,,55579,None,1,-16.7101818035,-49.2612348497,|Avenida Edmundo P Abreu Q 216a 826, Goias|,-16.6839215459,-49.2473245785,|Rua 91 597, Goias|,,GYN
714547,10/11/2019 16:56:39,1570823797.49,,1451,None,1,-16.6733090941,-49.257286638,|Rua 4 502, Goias|,-16.6925403772,-49.2376729846,|Rua 24 Q A13 347, Goias|,,GYN
714543,10/11/2019 16:56:29,1570823787.82,,24909,None,1,-16.7052692788,-49.240639843,|Rua 109, Goiania|,-16.7413967247,-49.2762864009,|Buriti Shopping, Rua Rio Verde, Goiania|,,GYN
714530,10/11/2019 16:56:11,1570823769.22,,55579,None,1,-16.7101818035,-49.2612348497,|Avenida Edmundo P Abreu Q 216a 826, Goias|,-16.7089002177,-49.233628884,|Avenida Dep Jamel Cecilio Q C30 3901, Goias|,,GYN
714527,10/11/2019 16:56:08,1570823766.24,,43130,,1,-16.7047349242,-49.2731820792,|Colegio Atrio - Rua T-53 - Setor Bueno, Goiania - GO|,-16.7334861531,-49.2860680819,|Residencial Amazonia Park I - Parque Amazonia, Goiania - GO|,,GYN
